stop_I,lat,lon,name,city_center
1,42.327192,-83.156513,Wyoming & Michigan,0
2,42.347309,-83.057625,Mack & Woodward,1
3,42.357982,-83.030357,MACK & MITCHELL,1
4,42.358312,-83.029953,MACK & MC DOUGALL,1
5,42.339119,-83.022671,Larned & Chene,1
6,42.355455,-83.007627,Kercheval & East Grand Blvd.,0
7,42.363555,-82.987761,McClellan & Kercheval,0
8,42.38261,-82.996821,Cadillac & Warren,0
9,42.392871,-83.00398,Cadillac & Harper,0
10,42.397088,-82.989249,Harper & Conner,0
11,42.404568,-82.96464,Harper & Chalmers,0
12,42.416759,-82.910832,Moross & Mack,0
13,42.417467,-82.911599,Moross & Mack,0
14,42.418675,-82.932847,Harper & Morang,0
15,42.426427,-82.959271,Kelly & Seymour,0
16,42.404649,-82.96497,Harper & Chalmers,0
17,42.397106,-82.989298,Harper & Conner,0
18,42.392925,-83.004297,Cadillac & Harper,0
19,42.382503,-82.996944,Cadillac & Warren,0
20,42.387241,-82.984035,Warren & St. Jean,0
21,42.363349,-82.988116,Kercheval & McClellan,0
22,42.355581,-83.007626,Kercheval & East Grand Blvd.,0
23,42.339048,-83.02333,Larned & Chene,1
24,42.384445,-83.111048,LaSalle - Webb,0
25,42.389345,-83.085923,Trowbridge & Woodward,0
26,42.402585,-83.052379,Caniff & Conant,0
27,42.3905,-83.022664,VAN DYKE & MILLER,0
28,42.400182,-83.000793,French Road & Gratiot,0
29,42.406105,-82.995714,East Outer Drive & Gratiot,0
30,42.414623,-82.970855,East Outer Drive & Chalmers,0
31,42.449635,-82.967572,Eight Mile & Gratiot,0
32,42.449798,-82.96822,Eight Mile & Gratiot,0
33,42.414686,-82.97116,East Outer Drive & Chalmers,0
34,42.406249,-82.996594,East Outer Drive & Gratiot,0
35,42.400397,-83.000707,French Road & Gratiot,0
36,42.390572,-83.023006,Miller & Van Dyke,0
37,42.404589,-83.037593,Mt. Elliott & Lynch,0
38,42.402612,-83.052819,Caniff & Conant,0
39,42.384606,-83.110974,LaSalle & Webb,0
40,42.39564,-82.958998,Chalmers & Warren,0
41,42.404783,-82.964811,Chalmers & Harper,0
42,42.435065,-82.9782,Seven Mile & Gratiot,0
43,42.448859,-82.995394,Waltham & Eight Mile,0
44,42.434921,-82.977687,Seven Mile & Gratiot,0
45,42.404801,-82.965079,Chalmers & Harper,0
46,42.407251,-82.927707,WARREN & GUILFORD,0
47,42.395292,-82.959023,Chalmers & Warren,0
48,42.343681,-83.196814,GREENFIELD & WARREN,0
49,42.352761,-83.032031,Chene & Gratiot,1
50,42.393975,-83.055722,Jos Campau & Holbrook,0
51,42.413067,-83.068668,Jos Campau & Davison,0
52,42.425772,-83.073023,Jos Campau & Nevada,0
53,42.426495,-83.02475,Nevada & Van Dyke,0
54,42.448047,-83.021271,Bel Air Shopping Center,0
55,42.425922,-83.024103,Varjo & Van Dyke,0
56,42.425745,-83.073219,Jos Campau & Nevada,0
57,42.413273,-83.06901,Jos Campau & Davison,0
58,42.3936,-83.055796,Jos Campau & Holbrook,0
59,42.373644,-83.046414,Chene & Ford Fwy.,0
60,42.352555,-83.032252,Chene & Gratiot,1
61,42.312497,-83.090295,Clark & Fort,0
62,42.310104,-83.096025,Junction & Fort,0
63,42.331553,-83.111651,Junction & Michigan,0
64,42.365343,-83.13017,Joy Rd. & Grand River,0
65,42.37628,-83.099277,Clairmount & Rosa Parks Blvd.,0
66,42.385858,-83.068291,Chrysler Sr. Dr. & Holbrook,0
67,42.374771,-83.046607,East Grand Blvd. & Chene,0
68,42.39289,-83.00508,Harper & Gratiot,0
69,42.386999,-82.983901,St. Jean & Warren,0
70,42.368413,-82.967853,Lycaste & Jefferson,0
71,42.387401,-82.983839,St. Jean & Warren,0
72,42.374986,-83.046509,East Grand Blvd. & Chene,0
73,42.386073,-83.068694,Holbrook & Chrysler Sr. Dr.,0
74,42.376334,-83.099925,Clairmount & Rosa Parks Blvd.,0
75,42.365147,-83.130794,Joy Rd. & Grand River,0
76,42.331016,-83.111224,Junction & Michigan,0
77,42.310936,-83.0965,I-75 SER. DR. & JUNCTION,0
78,42.442187,-83.121924,State Fairgrounds Transit Center,0
79,42.432803,-83.073414,Conant & Seven Mile,0
80,42.418517,-83.063473,Conant & McNichols,0
81,42.387841,-83.041396,Conant & Dwyer,0
82,42.364583,-83.024,Mt. Elliott & Gratiot,0
83,42.346899,-83.003142,Helen & Jefferson,1
84,42.364932,-83.024011,Mt. Elliott & Gratiot,0
85,42.38785,-83.041335,Conant & Dwyer,0
86,42.418714,-83.063412,Conant & McNichols,0
87,42.433214,-83.07345,Conant & Seven Mile,0
88,42.440048,-83.083468,STATE FAIR & DEQUINDRE,0
89,42.420069,-83.003036,Gunston & McNichols,0
90,42.404632,-82.99765,Conner & Gratiot,0
91,42.392641,-82.983138,CONNER & SHOEMAKER,0
92,42.389052,-82.975901,Conner & Warren,0
93,42.370222,-82.95917,Conner & Jefferson,0
94,42.363426,-82.950506,Essex & Continental,0
95,42.364113,-82.935939,Korte & Phillip,0
96,42.363606,-82.950774,ESSEX & KITCHENER,0
97,42.370114,-82.958841,Conner & Jefferson,0
98,42.389356,-82.976267,Conner & Warren,0
99,42.393036,-82.983528,CONNER & CHANDLER PARK DR,0
100,42.420185,-83.002986,Gunston & McNichols,0
101,42.343083,-83.242682,PIERSON LOOP,0
102,42.34169,-83.259672,WARREN & CHATHAM,0
103,42.34352,-83.196435,Warren & Greenfield,0
104,42.343841,-83.176732,Warren & Schaefer,0
105,42.344603,-83.129995,Warren & Livernois,0
106,42.34926,-83.086732,Fourteenth & Warren,1
107,42.356957,-83.064081,Warren & Woodward,1
108,42.343933,-83.038502,Gratiot & Russell,1
109,42.373946,-83.010705,Forest & Van Dyke,0
110,42.382404,-82.996565,Warren & Cadillac,0
111,42.387178,-82.983693,Warren & St. Jean,0
112,42.395488,-82.958742,Warren & Chalmers,0
113,42.406964,-82.927256,WARREN & GUILFORD,0
114,42.395489,-82.959267,Warren & Chalmers,0
115,42.382396,-82.997054,Warren & Cadillac,0
116,42.375998,-83.013107,Warren & Van Dyke,0
117,42.372795,-83.018981,Gratiot & East Grand Blvd.,0
118,42.34362,-83.039016,Gratiot & Russell,1
119,42.356886,-83.064679,WARREN & WOODWARD,1
120,42.349689,-83.087135,Warren & Fourteenth,1
121,42.344782,-83.130667,Warren & Livernois,0
122,42.344002,-83.176719,Warren & Schaefer,0
123,42.343663,-83.196912,Warren & Greenfield,0
124,42.342922,-83.242499,WARREN & PIERSON,0
125,42.341851,-83.259648,WARREN & CHATHAM,0
126,42.36672,-83.246559,Orangelawn & Burt,0
127,42.364768,-83.221521,West Chicago & Faust (Cody High),0
128,42.365271,-83.197205,West Chicago & Greenfield,0
129,42.365565,-83.177593,West Chicago & Schaefer,0
130,42.36599,-83.158103,West Chicago & Wyoming,0
131,42.373768,-83.150766,Oakman & Grand River,0
132,42.386518,-83.139549,Davison & Livernois,0
133,42.395226,-83.11601,Davison & Fourteenth,0
134,42.407198,-83.097998,Manchester & Woodward,0
135,42.413174,-83.068741,Jos Campau & Davison,0
136,42.418581,-83.07295,McNichols & Jos Campau,0
137,42.412844,-83.069158,Davison & Jos Campau,0
138,42.406984,-83.099148,Manchester & Woodward,0
139,42.395369,-83.116401,Davison & Fourteenth,0
140,42.386733,-83.139989,Davison & Livernois,0
141,42.373509,-83.15117,OAKMAN & GRAND RIVER,0
142,42.366213,-83.15875,West Chicago & Wyoming,0
143,42.365833,-83.17802,West Chicago & Schaefer,0
144,42.365531,-83.197596,West Chicago & Greenfield,0
145,42.365036,-83.221728,Chicago & Faust (Cody High),0
146,42.458873,-83.202564,Providence Hospital,0
147,42.447424,-83.20233,Northland Center,0
148,42.418916,-83.21792,West Outer Drive & Southfield,0
149,42.419266,-83.199748,West Outer Drive & Greenfield,0
150,42.423867,-83.160174,Curtis & Wyoming,0
151,42.417018,-83.140123,McNichols & Livernois,0
152,42.402454,-83.13566,Dexter & Fenkell,0
153,42.380983,-83.125437,Dexter & Elmhurst,0
154,42.357934,-83.109529,Dexter & Lothrop,0
155,42.363662,-83.090913,W. Grand Blvd. & Rosa Park Blvd.,0
156,42.368793,-83.077035,W. Grand Blvd. & Second,0
157,42.341953,-83.058759,Cass & Temple,1
158,42.3283,-83.04622,Jefferson & Shelby,1
159,42.342167,-83.058514,Cass & Temple,1
160,42.368954,-83.077389,W. Grand Blvd. & Second,0
161,42.363725,-83.09145,W. Grand Blvd. & Rosa Park Blvd.,0
162,42.357863,-83.109151,Dexter & Lothrop,0
163,42.381511,-83.125351,Dexter & Elmhurst,0
164,42.402812,-83.135318,Dexter & Fenkell,0
165,42.417286,-83.140636,Livernois & McNichols,0
166,42.424109,-83.160712,Curtis & Wyoming,0
167,42.419481,-83.199785,West Outer Drive & Greenfield,0
168,42.419086,-83.219717,W. OUTER DRIVE & SOUTHFIELD,0
169,42.447406,-83.202232,Northland Center,0
170,42.428423,-83.285103,Seven Mile & Grand River,0
171,42.443017,-83.258601,Eight Mile & Lahser,0
172,42.443571,-83.239102,Eight Mile & Evergreen,0
173,42.447298,-83.202771,Northland Center,0
174,42.445016,-83.180812,Eight Mile & Schaefer,0
175,42.446124,-83.141983,Eight Mile & Livernois,0
176,42.441936,-83.120763,Fairgrounds,0
177,42.447132,-83.082967,Eight Mile & Dequindre,0
178,42.448221,-83.024317,Eight Mile & Van Dyke,0
179,42.446069,-82.935924,Eastland Center,0
180,42.448356,-83.024892,Eight Mile & Van Dyke,0
181,42.447311,-83.08353,Eight Mile & Dequindre,0
182,42.442115,-83.120457,Fairgrounds,0
183,42.446267,-83.142374,Eight Mile & Livernois,0
184,42.445178,-83.18124,Eight Mile & Coolidge,0
185,42.447942,-83.200752,Northland Center,0
186,42.443785,-83.239494,Eight Mile & Evergreen,0
187,42.399834,-83.275043,Fenkell & Dale,0
188,42.400424,-83.237634,Fenkell & Evergreen,0
189,42.400822,-83.217389,Fenkell & Southfield,0
190,42.401217,-83.198549,Fenkell & Greenfield,0
191,42.401716,-83.178964,Fenkell & Schaefer,0
192,42.40224,-83.159439,Fenkell & Wyoming,0
193,42.402579,-83.135122,Fenkell & Dexter,0
194,42.400111,-83.119488,Fourteenth & Oakman,0
195,42.375012,-83.102994,Fourteenth & Clairmount,0
196,42.362234,-83.094703,Fourteenth & West Grand Blvd,0
197,42.346987,-83.08549,Fourteenth & Grand River,1
198,42.333762,-83.077902,Fourteeth & Fisher Fwy,1
199,42.333874,-83.073236,Rosa Parks Blvd. & Fisher Fwy.,1
200,42.345184,-83.0798,Rosa Parks Blvd. & Grand River,1
201,42.363949,-83.091169,Rosa Parks Blvd. & W.Grand Blvd.,0
202,42.376557,-83.099668,Rosa Parks Blvd. & Clairmount,0
203,42.401487,-83.116638,Rosa Parks Blvd. & Oakman Blvd.,0
204,42.402678,-83.135721,Fenkell & Dexter,0
205,42.40241,-83.159928,Fenkell & Wyoming,0
206,42.401877,-83.179759,Fenkell & Schaefer,0
207,42.401378,-83.199197,Fenkell & Greenfield,0
208,42.401009,-83.218428,Fenkell & Southfield,0
209,42.40054,-83.238123,Fenkell & Evergreen,0
210,42.399941,-83.275947,Fenkell & Dale,0
211,42.322366,-83.066968,Fort & Rosa Park,1
212,42.312532,-83.090332,FORT & CLARK,0
213,42.304748,-83.108656,Fort & Waterman,0
214,42.292013,-83.140958,Fort & Miller,0
215,42.276217,-83.155603,Fort & Schaefer,0
216,42.262288,-83.166837,Fort & West Outer Drive,0
217,42.255418,-83.161313,Bassett & West Outer Drive,0
218,42.262064,-83.166666,Fort & West Outer Drive,0
219,42.276431,-83.155139,Fort & Schaefer,0
220,42.291754,-83.140885,Fort & Miller,0
221,42.304694,-83.108095,Fort & Waterman,0
222,42.312559,-83.08966,Fort & Clark,0
223,42.322294,-83.066528,Fort & Rosa Parks Blvd.,1
224,42.306488,-83.155036,Ford Gate #2,0
225,42.36266,-83.089851,Ferry Park & Rosa Parks Blvd.,0
226,42.362929,-83.090914,Ferry Park & Rosa Park Blvd.,0
227,42.327174,-83.156733,Wyoming & Michigan,0
228,42.307115,-83.155756,Ford Gate #2,0
229,42.428002,-83.285457,Grand River & Seven Mile (Grandview,0
230,42.414612,-83.253563,Grand River & McNichols (nearside),0
231,42.408178,-83.237675,Grand River & Evergreen,0
232,42.400473,-83.218379,Grand River & Southfield,0
233,42.392326,-83.197987,Grand River & Greenfield,0
234,42.384767,-83.179005,Grand River & Schaefer,0
235,42.376543,-83.158708,Grand River & Wyoming,0
236,42.373518,-83.150913,Grand River & Oakman,0
237,42.364967,-83.130061,Grand River & Joy Road,0
238,42.357148,-83.110141,Grand River & Scotten,0
239,42.348635,-83.08903,Grand River & Warren,1
240,42.336004,-83.057586,Grand River & Fisher Ser. Dr.,1
241,42.331671,-83.038457,Jefferson & St Antoine,1
242,42.336918,-83.059673,Grand River & Fisher Ser. Dr.,1
243,42.349289,-83.089921,Grand River & Warren,0
244,42.357058,-83.109396,Grand River & West Grand Blvd,0
245,42.365675,-83.130989,Grand River & Joy Road  (west of Riviera),0
246,42.373715,-83.150852,Grand River & Oakman,0
247,42.376973,-83.159172,Grand River & Wyoming,0
248,42.384848,-83.178614,Grand River & Schaefer,0
249,42.392595,-83.19828,Grand River & Greenfield,0
250,42.400965,-83.218856,Grand River & Southfield,0
251,42.408491,-83.238079,Grand River & Evergreen,0
252,42.414523,-83.252878,Grand River & McNichols,0
253,42.415563,-83.199406,Greenfield & McNichols,0
254,42.392282,-83.198439,Greenfield & Grand River,0
255,42.38679,-83.198292,Greenfield & Schoolcraft,0
256,42.372247,-83.197779,Greenfield & Plymouth,0
257,42.357776,-83.197278,Greenfield & Joy Road,0
258,42.343458,-83.196789,Greenfield & Warren,0
259,42.327941,-83.195959,Greenfield & Ford Road,0
260,42.319112,-83.217817,Fairlane Town Center,0
261,42.317361,-83.195129,Greenfield & Michigan,0
262,42.327941,-83.195739,Greenfield & Ford Road,0
263,42.344137,-83.196618,Greenfield & Warren,0
264,42.358259,-83.197095,Greenfield & Joy Road,0
265,42.372686,-83.197583,Greenfield & Plymouth,0
266,42.387255,-83.19806,Greenfield & Schoolcraft,0
267,42.392684,-83.198182,Greenfield & Grand River,0
268,42.416243,-83.199234,Greenfield & McNichols,0
269,42.443571,-83.239408,Evergreen & Eight Mile,0
270,42.42972,-83.220112,Seven Mile & Southfield,0
271,42.431517,-83.140955,Seven Mile & Livernois,0
272,42.431698,-83.127966,Seven Mile & Pontchartrain,0
273,42.417237,-83.116327,Hamilton & Six Mile,0
274,42.379314,-83.09084,J.C.Lodge & Clairmount,0
275,42.34058,-83.063159,Third & Temple,1
276,42.339986,-83.059166,Ledyard & Second,1
277,42.336927,-83.050696,WOODWARD & ADAMS,1
278,42.330424,-83.042783,LARNED & RANDOLPH,1
279,42.331092,-83.040205,Beaubien & Jefferson,1
280,42.33749,-83.050914,WOODWARD & ADAMS,1
281,42.337313,-83.060454,Grand River & Third,1
282,42.339852,-83.059557,Ledyard & Second,1
283,42.341597,-83.06091,Second & Temple,1
284,42.368712,-83.076583,Second & West Grand Blvd,0
285,42.38018,-83.089519,J.C.Lodge & Clairmount,0
286,42.41738,-83.116167,Hamilton & Six Mile,0
287,42.431904,-83.128002,Seven Mile & Pontchartrain,0
288,42.431651,-83.141787,Seven Mile & Livernois,0
289,42.430884,-83.180766,Seven Mile & Schaefer,0
290,42.430956,-83.186539,JAMES COUZENS & 7 MILE,0
291,42.342271,-83.013062,Jefferson & Adair,1
292,42.347102,-83.0017,Jefferson & E. Grand Blvd,0
293,42.367139,-82.970362,Jefferson & St. Jean,0
294,42.370523,-82.952949,Jefferson & Dickerson,0
295,42.37065,-82.953462,Jefferson & Dickerson,0
296,42.367068,-82.970875,Jefferson & St. Jean,0
297,42.347192,-83.002128,Jefferson & E. Grand Blvd,0
298,42.362618,-83.276052,Redford Plaza,0
299,42.356716,-83.2742,Joy Road & Telegraph,0
300,42.357319,-83.250083,Joy Road & Spinoza,0
301,42.357739,-83.215556,Joy Road & Southfield,0
302,42.358009,-83.197571,Joy Rd & Greenfield,0
303,42.35832,-83.177351,Joy Road & Schaefer,0
304,42.358924,-83.157875,Joy Road & Wyoming,0
305,42.359704,-83.138301,Joy Rd & Livernois,0
306,42.353191,-83.119052,Tireman & Beechwood,0
307,42.35704,-83.10964,Grand River & W.Grand Blvd,0
308,42.344804,-83.107799,W.Grand Blvd & Warren,0
309,42.331424,-83.094907,W.Grand Blvd & Michigan,1
310,42.325679,-83.062064,Lafayette & Trumbull,1
311,42.325698,-83.062687,Lafayette & Trumbull,1
312,42.317608,-83.085061,W.Grand Blvd & Lafayette,1
313,42.331791,-83.094882,W.Grand Blvd & Michigan,1
314,42.345189,-83.107847,W.Grand Blvd & Warren,0
315,42.353415,-83.119357,Beechwood & Tireman,0
316,42.359391,-83.138509,Joy Rd & Livernois,0
317,42.359085,-83.158192,Joy Road & Wyoming,0
318,42.358481,-83.1779,Joy Road & Schaefer,0
319,42.358179,-83.197351,Joy Rd & Greenfield,0
320,42.357882,-83.218073,Joy Road & Southfield,0
321,42.357417,-83.250633,Joy Road & Spinoza,0
322,42.357056,-83.27447,Joy Road & Telegraph,0
323,42.402629,-83.126809,Linwood & Fenkell,0
324,42.373389,-83.108935,Linwood & Joy Rd.,0
325,42.360101,-83.100021,Linwood & West Grand Blvd.,0
326,42.352034,-83.078885,Trumbull & Warren,1
327,42.331408,-83.066963,Trumbull & Michigan,1
328,42.331766,-83.066791,Trumbull & Michigan,1
329,42.352535,-83.078786,Trumbull & Warren,1
330,42.360459,-83.09991,Linwood & West Grand Blvd.,0
331,42.373675,-83.108715,Linwood & Joy Rd.,0
332,42.402843,-83.126515,Linwood & Fenkell,0
333,42.445453,-83.142179,Livernois & Eight Mile,0
334,42.391419,-83.139985,Livernois & Ewald Circle,0
335,42.368576,-83.139161,Livernois & Grand River,0
336,42.344057,-83.129947,Livernois & Warren,0
337,42.336918,-83.124628,Livernois & I-94 Frwy.,0
338,42.33103,-83.120286,Livernois & Michigan,0
339,42.300413,-83.099323,WEST JEFFERSON & LIVERNOIS,0
340,42.282402,-83.126894,West Jefferson & Brennan Loop,0
341,42.301646,-83.097978,Dragoon & West Jefferson,0
342,42.331594,-83.120261,Livernois & Michigan,0
343,42.337579,-83.12453,Livernois & I-94 FRWY.,0
344,42.34514,-83.130446,Livernois & Warren,0
345,42.368943,-83.138843,Livernois & Grand River,0
346,42.391741,-83.139679,Livernois & Ewald Circle,0
347,42.445542,-83.141898,Livernois & Eight Mile,0
348,42.394925,-82.92273,Mack & Cadieux,0
349,42.387508,-82.948037,Mack & Alter,0
350,42.384603,-82.96885,Mack & Conner,0
351,42.379263,-82.97867,Mack & St. Jean,0
352,42.364291,-83.013517,MACK & EAST GRAND BLVD,0
353,42.359087,-83.02774,Mack & Gratiot,1
354,42.339396,-83.029547,Lafayette & St. Aubin,1
355,42.339315,-83.029425,Lafayette & St. Aubin,1
356,42.358775,-83.027948,Mack & Gratiot,1
357,42.364281,-83.012979,MACK & EAST GRAND BLVD,0
358,42.379307,-82.978621,Mack & St. Jean,0
359,42.384468,-82.968362,Mack & Conner,0
360,42.3874,-82.94816,Mack & Alter,0
361,42.395112,-82.922253,Mack & Cadieux,0
362,42.43468,-82.952919,Kelly & Moross,0
363,42.414842,-83.258809,Rockdale & McNichols,0
364,42.415267,-83.218322,McNichols & Southfield,0
365,42.416206,-83.17962,McNichols & Schaefer,0
366,42.416964,-83.140319,McNichols & Livernois,0
367,42.41738,-83.116192,McNichols & Hamilton,0
368,42.417596,-83.104514,McNichols & Woodward,0
369,42.418481,-83.063229,McNichols & Conant,0
370,42.419347,-83.023936,McNichols & Van Dyke,0
371,42.433784,-83.024035,Seven Mile & Van Dyke,0
372,42.433851,-83.014678,Seven Mile & East Outer Drive,0
373,42.41944,-83.013505,McNichols & Conner,0
374,42.420042,-83.002669,McNichols & Gunston,0
375,42.426584,-82.982716,Seymour & Gratiot,0
376,42.395363,-82.922814,Cadieux & Mack,0
377,42.412684,-82.942493,Whittier & Harper,0
378,42.426809,-82.983204,McNichols & Gratiot,0
379,42.420149,-83.00295,McNichols & Gunston,0
380,42.41978,-83.013749,E. Outer Drive & McNichols,0
381,42.434129,-83.014885,Seven Mile & East Outer Drive,0
382,42.433963,-83.024401,Seven Mile & Van Dyke,0
383,42.419517,-83.02396,McNichols & Van Dyke,0
384,42.418652,-83.063522,McNichols & Conant,0
385,42.417838,-83.105516,McNichols & Woodward,0
386,42.41764,-83.116693,McNichols & Pontchartrain,0
387,42.417233,-83.141284,McNichols & Livernois,0
388,42.416322,-83.18011,McNichols & Schaefer,0
389,42.415535,-83.219924,McNichols & Southfield,0
390,42.352582,-83.031885,GRATIOT & CHENE,1
391,42.372965,-83.018516,Gratiot & East Grand Blvd,0
392,42.379095,-83.014626,GRATIOT & VAN DYKE,0
393,42.393168,-83.005213,Gratiot & Harper (I - 94),0
394,42.40632,-82.996264,Gratiot & East Outer Dr,0
395,42.434984,-82.977932,Gratiot & East Seven Mile,0
396,42.449556,-82.968147,Gratiot & East Eight Mile,0
397,42.434814,-82.978018,Gratiot & East Seven Mile,0
398,42.40616,-82.996705,Gratiot & East Outer Dr,0
399,42.392775,-83.005789,Gratiot & Harper (I-94),0
400,42.379006,-83.014883,Gratiot & Van Dyke,0
401,42.358998,-83.027594,Gratiot & Mack,1
402,42.352404,-83.032325,GRATIOT & CHENE,1
403,42.349753,-83.052196,Beaubien & Mack,1
404,42.366633,-83.063463,Beaubien & I-94,0
405,42.372611,-83.06735,Beaubien & East Grand Blvd,0
406,42.386337,-83.072678,Oakland & Owen,0
407,42.410554,-83.089178,Oakland & Manchester,0
408,42.406573,-83.099638,Manchester & Woodward,0
409,42.424529,-83.094317,Oakland & Nevada,0
410,42.440173,-83.083138,DEQUINDRE & OUTER DRIVE,0
411,42.446461,-83.083225,Conant & Dequindre (Eight Mile),0
412,42.447194,-83.063602,Eight Mile & Ryan,0
413,42.440393,-83.078648,Conant & East Outer Drive,0
414,42.445236,-83.083227,Eight Mile & Dequindre,0
415,42.439851,-83.083469,DEQUINDRE & STATE FAIR,0
416,42.42419,-83.094648,Oakland & Nevada,0
417,42.410098,-83.089301,Oakland & Manchester,0
418,42.385979,-83.072776,Oakland & Owen,0
419,42.316342,-83.194848,Michigan & Greenfield,0
420,42.331066,-83.12003,Michigan & Livernois,0
421,42.331469,-83.094699,Michigan & West Grand Blvd.,1
422,42.33138,-83.066145,Michigan & Trumbull,1
423,42.331659,-83.067439,MICHIGAN & TRUMBULL,1
424,42.331719,-83.095187,Michigan & West Grand Blvd.,0
425,42.331334,-83.120457,Michigan & Livernois,0
426,42.316431,-83.195422,Michigan & Greenfield,0
427,42.371347,-83.260493,Plymouth & W.Outer Drive,0
428,42.371839,-83.23609,Plymouth & Evergreen,0
429,42.372246,-83.216513,Plymouth & Southfield,0
430,42.372417,-83.197449,Plymouth & Greenfield,0
431,42.372818,-83.177921,Plymouth & Schaefer,0
432,42.374064,-83.151683,Plymouth & Grand River,0
433,42.380724,-83.125169,Elmhurst & Dexter,0
434,42.383134,-83.103411,Calvert & Rosa Parks Blvd,0
435,42.36683,-83.082305,J.C Lodge & W.Grand Blvd,0
436,42.427368,-82.965126,Hayes & Seymour,0
437,42.427029,-82.96547,Hayes & Seymour,0
438,42.390312,-83.087009,Collingwood & Woodward,0
439,42.380921,-83.12545,Elmhurst & Dexter,0
440,42.373948,-83.151976,Plymouth & Grand River,0
441,42.372979,-83.178324,Plymouth & Schaefer,0
442,42.372578,-83.197913,Plymouth & Greenfield,0
443,42.37238,-83.217625,Plymouth & Southfield,0
444,42.371991,-83.236444,Plymouth & Evergreen,0
445,42.37148,-83.261214,Plymouth & W.Outer Drive,0
446,42.371069,-83.276819,Plymouth & Telegraph (Woodbine),0
447,42.401224,-83.21811,SOUTHFIELD & FENKELL,0
448,42.408952,-83.179207,Puritan & Schaefer,0
449,42.409422,-83.159802,Puritan & Wyoming,0
450,42.409719,-83.140202,Puritan & Livernois,0
451,42.410652,-83.111798,Puritan & Hamilton,0
452,42.40988,-83.140765,Puritan & Livernois,0
453,42.409583,-83.160242,Puritan & Wyoming,0
454,42.409078,-83.17983,Puritan & Schaefer,0
455,42.401242,-83.219198,SOUTHFIELD & FENKELL,0
456,42.37415,-83.05889,Russell & Milwaukee,0
457,42.390404,-83.061694,Holbrook & St. Aubin,0
458,42.397011,-83.067855,NAGEL & Caniff,0
459,42.425387,-83.082196,Nevada & DEQUINDRE,0
460,42.440519,-83.061241,East Outer Drive & Sunset,0
461,42.44102,-83.024396,East Outer Drive & Van Dyke,0
462,42.44111,-83.018023,CHSD Building,0
463,42.441155,-83.024714,East Outer Drive & Van Dyke,0
464,42.44067,-83.061131,East Outer Drive & Sunset,0
465,42.425253,-83.082514,Dequindre & Nevada,0
466,42.396565,-83.068943,Dequindre & Caniff,0
467,42.390073,-83.06178,St. Aubin & HOLBROOK,0
468,42.373864,-83.058928,Russell & Milwaukee,0
469,42.360062,-83.049743,RUSSELL & FOREST,1
470,42.343585,-83.038979,Gratiot & RUSSELL,1
471,42.444381,-83.181081,Schaefer & Eight Mile,0
472,42.41965,-83.180084,Schaefer & West Outer Drive,0
473,42.384374,-83.178529,Schaefer & Grand River,0
474,42.358249,-83.177693,Schaefer & Joy Road,0
475,42.321759,-83.176128,Schaefer & Michigan,0
476,42.300179,-83.173949,Ford Gate #9,0
477,42.276145,-83.155323,Schaefer & Fort,0
478,42.282304,-83.127151,Brennan & West Jefferson,0
479,42.322171,-83.175896,Schaefer & Michigan,0
480,42.358392,-83.177595,Schaefer & Joy Road,0
481,42.384338,-83.178296,Schaefer & Grand River,0
482,42.390617,-83.178539,Coolidge Terminal,0
483,42.420115,-83.179901,Schaefer & West Outer Drive,0
484,42.444954,-83.180885,Schaefer & Eight Mile,0
485,42.384522,-83.274414,Schoolcraft & Dale,0
486,42.38652,-83.217397,Schoolcraft & Southfield,0
487,42.387335,-83.185458,Schoolcraft & Grand River,0
488,42.388023,-83.178234,Schoolcraft & Schaefer,0
489,42.391482,-83.139582,Ewald Circle & Livernois,0
490,42.404558,-83.107746,Oakman & Hamilton,0
491,42.404719,-83.107844,Oakman & Hamilton,0
492,42.391544,-83.139961,Ewald Circle & Livernois,0
493,42.388175,-83.178662,Schoolcraft & Schaefer,0
494,42.387505,-83.185507,Schoolcraft & Grand River,0
495,42.386681,-83.218448,Schoolcraft & Southfield,0
496,42.416748,-83.258468,Redford & Grand River,0
497,42.429376,-83.239143,Seven Mile & Evergreen,0
498,42.430563,-83.186026,7 MILE & JAMES COUZENS,0
499,42.430669,-83.180253,Seven Mile & Schaefer,0
500,42.431796,-83.127452,Seven Mile Pontchartrain,0
501,42.43315,-83.063078,Seven Mile & Ryan,0
502,42.4334,-83.062992,Seven Mile & Ryan,0
503,42.432047,-83.127452,Seven Mile Pontchartrain,0
504,42.43067,-83.187603,7 MILE & JAMES COUZENS,0
505,42.429935,-83.220332,Seven Mile & Southfield,0
506,42.429573,-83.239216,Seven Mile & Evergreen,0
507,42.444058,-83.220472,Southfield & Eight Mile,0
508,42.415141,-83.219704,Southfield & McNichols,0
509,42.400714,-83.219112,Southfield & Grand River,0
510,42.372094,-83.217503,Southfield & Plymouth,0
511,42.357668,-83.217242,Southfield & Joy Road,0
512,42.342848,-83.216859,Southfield & Warren,0
513,42.319423,-83.230688,University of Michigan,0
514,42.320138,-83.230993,University of Michigan,0
515,42.343465,-83.21598,Southfield & Warren,0
516,42.358025,-83.215935,Southfield & Joy Road,0
517,42.372541,-83.216586,Southfield & Plymouth,0
518,42.400222,-83.217914,Southfield & Grand River,0
519,42.415571,-83.218383,Southfield & McNichols,0
520,42.350397,-83.215603,Tireman & Southfield,0
521,42.35072,-83.196643,Tireman & Greenfield,0
522,42.351219,-83.176901,Tireman & Schaefer,0
523,42.351644,-83.157366,Tireman & Wyoming,0
524,42.35202,-83.135473,Tireman & Livernois,0
525,42.334233,-83.096381,M.L. King & West Grand Blvd,0
526,42.34219,-83.071756,M.L. King & Grand River,1
527,42.342297,-83.071926,M.L. King & Grand River,1
528,42.334207,-83.096796,M.L.King & West Grand Blvd,0
529,42.356817,-83.109677,West Grand Blvd & Grand River,0
530,42.352181,-83.136035,Tireman & Livernois,0
531,42.351751,-83.15805,Tireman & Wyoming,0
532,42.351362,-83.177487,Tireman & Schaefer,0
533,42.350881,-83.197254,Tireman & Greenfield,0
534,42.350584,-83.217582,Tireman & Southfield,0
535,42.350423,-83.003743,Lafayette & East Grand Blvd.,0
536,42.360356,-83.001406,Van Dyke & Vernor,0
537,42.376212,-83.012752,Van Dyke & Warren,0
538,42.384306,-83.018511,Van Dyke & Conger (Kettering),0
539,42.388263,-83.021386,Van Dyke & Harper,0
540,42.405008,-83.02308,Van Dyke & Lynch,0
541,42.426529,-83.023821,Van Dyke & Nevada,0
542,42.434016,-83.02412,Van Dyke & Seven Mile,0
543,42.448275,-83.02461,Van Dyke & Eight Mile,0
544,42.448159,-83.024794,Van Dyke & Eight Mile,0
545,42.433614,-83.024439,Van Dyke & Seven Mile,0
546,42.426136,-83.024066,Van Dyke & Nevada,0
547,42.404758,-83.023386,Van Dyke & Lynch,0
548,42.387789,-83.021424,Van Dyke & Harper,0
549,42.384351,-83.018792,Van Dyke & Conger (Kettering),0
550,42.375828,-83.012851,Van Dyke & Warren,0
551,42.360052,-83.001395,Van Dyke & Vernor,0
552,42.350406,-83.004489,Lafayette & East Grant Blvd.,0
553,42.311556,-83.127304,Vernor & Springwells,0
554,42.315758,-83.109888,Vernor & Livernois,0
555,42.323084,-83.088838,Vernor & W. Grand Blvd,1
556,42.329511,-83.065489,Trumbull - Bagley,1
557,42.329699,-83.065745,Bagley & Trumbull,1
558,42.315811,-83.110169,Vernor & Livernois,0
559,42.311556,-83.127451,Vernor & Springwells,0
560,42.417507,-83.104991,Woodward & McNichols,0
561,42.406984,-83.098304,Woodward & Manchester,0
562,42.393301,-83.088985,Woodward & Tuxedo,0
563,42.382598,-83.081827,Woodward & Clairmount,0
564,42.369952,-83.073428,Woodward & Grand Blvd.,0
565,42.354523,-83.063108,Woodward & Forest,1
566,42.340579,-83.053436,Woodward & Henry,1
567,42.331878,-83.046883,WOODWARD  & MICHIGAN,1
568,42.341035,-83.053374,WOODWARD & WINDER,1
569,42.355042,-83.063021,Woodward & Forest,1
570,42.370498,-83.073415,Woodward & Grand Blvd.,0
571,42.382812,-83.081546,Owen & Woodward,0
572,42.39373,-83.088862,Woodward & Tennyson,0
573,42.407494,-83.098304,Woodward & Manchester,0
574,42.417516,-83.104758,Woodward & McNichols,0
575,42.445469,-83.161642,Wyoming & Eight Mile,0
576,42.437392,-83.161218,Wyoming & Pembroke (Bates Academy),0
577,42.416605,-83.160459,Wyoming & Six Mile,0
578,42.401811,-83.159709,Wyoming & Fenkell,0
579,42.376499,-83.15905,Wyoming & Grand River,0
580,42.358727,-83.158156,Wyoming & Joy Rd.,0
581,42.344104,-83.157492,Wyoming & Warren,0
582,42.292607,-83.113689,West Jefferson & WEST END,0
583,42.344408,-83.157138,Wyoming & Warren,0
584,42.359327,-83.157826,Wyoming & Joy Rd.,0
585,42.376848,-83.158732,Wyoming & Grand River,0
586,42.402446,-83.159439,Wyoming & Fenkell,0
587,42.416846,-83.160128,Wyoming & Six Mile,0
588,42.44537,-83.161349,Wyoming & Eight Mile,0
589,42.429385,-83.238996,Evergreen & Seven Mile,0
590,42.408366,-83.238225,Evergreen & Grand River,0
591,42.386122,-83.237161,Evergreen & Schoolcraft,0
592,42.357368,-83.236204,Evergreen & Joy Road,0
593,42.342862,-83.235695,Evergreen & Warren,0
594,42.324716,-83.2345,Henry Ford Community College,0
595,42.343139,-83.235487,Evergreen & Warren,0
596,42.357619,-83.235984,Evergreen & Joy Rd,0
597,42.386632,-83.237002,Evergreen & Schoolcraft,0
598,42.408724,-83.237993,Evergreen & Grand River,0
599,42.429617,-83.238788,Evergreen & Seven Mile,0
600,42.419793,-83.179803,West Outer Drive & Schaefer,0
601,42.419945,-83.180194,West Outer Drive & Schaefer,0
602,42.414727,-83.257255,LAHSER & McNICHOLS,0
603,42.37158,-83.259308,PLYMOUTH & ROUGE PARK DRIVE,0
604,42.433302,-83.116271,WOODWARD & BALMORAL,0
605,42.433802,-83.116148,WOODWARD & BRYSON,0
606,42.41365,-83.10255,WOODWARD & PURITAN,0
607,42.41314,-83.102037,WOODWARD & PILGRIM,0
608,42.41485,-83.103466,WOODWARD & EASON,0
609,42.414957,-83.103148,WOODWARD & CHURCH,0
610,42.421999,-83.10803,WOODWARD & WORCESTER,0
611,42.421749,-83.108262,WOODWARD & WORCESTER,0
612,42.425543,-83.110569,WOODWARD & SAVANNAH,0
613,42.425248,-83.110765,WOODWARD & SAVANNAH,0
614,42.423637,-83.109263,WOODWARD & NEVADA,0
615,42.423351,-83.109459,WOODWARD & NEVADA,0
616,42.430349,-83.114269,WOODWARD & HOLLYWOOD,0
617,42.430653,-83.114073,WOODWARD & HOLLYWOOD,0
618,42.42821,-83.112351,WOODWARD & HILDALE,0
619,42.428648,-83.11306,WOODWARD & GOLDENGATE,0
620,42.427243,-83.112059,WOODWARD & GRIXDALE,0
621,42.426805,-83.111362,WOODWARD & GREENDALE,0
622,42.418617,-83.105821,WOODWARD & COVINGTON,0
623,42.439404,-83.120142,WOODWARD & STATE FAIR,0
624,42.439332,-83.119824,STATE FAIR & WOODWARD,0
625,42.439127,-83.120338,WOODWARD & STATE FAIR,0
626,42.438983,-83.119628,STATE FAIR & WOODWARD,0
627,42.437749,-83.118945,WOODWARD & STRATHCONA,0
628,42.437427,-83.119104,WOODWARD & STRATHCONA,0
629,42.435127,-83.117541,WOODWARD & WELLESLEY,0
630,42.434993,-83.11704,WOODWARD & RALSTON,0
631,42.44395,-83.123464,WOODWARD & WINCHESTER,0
632,42.335046,-83.048904,WOODWARD & JOHN R - NEAR,1
633,42.335315,-83.049319,WOODWARD & CLIFFORD,1
634,42.331072,-83.045945,WOODWARD & CADILLAC SQUARE,1
635,42.330723,-83.045958,WOODWARD & CONGRESS,1
636,42.329861,-83.042845,JEFFERSON & RANDOLPH,1
637,42.330895,-83.040144,JEFFERSON & BEAUBIEN,1
638,42.330467,-83.041207,JEFFERSON & BRUSH,1
639,42.330948,-83.039594,JEFFERSON & BEAUBIEN,1
640,42.368466,-83.07216,WOODWARD & BALTIMORE,0
641,42.363875,-83.069346,WOODWARD & ANTOINETTE,0
642,42.362434,-83.067882,WOODWARD & PALMER,1
643,42.36196,-83.067908,WOODWARD & PALMER,1
644,42.363705,-83.06876,WOODWARD & EDSEL FORD FREEWAY,0
645,42.366613,-83.070697,WOODWARD & PIQUETTE,0
646,42.366372,-83.070893,WOODWARD & AMSTERDAM,0
647,42.397167,-83.091387,WOODWARD & RHODE ISLAND,0
648,42.400192,-83.093815,WOODWARD & AVALON,0
649,42.407476,-83.098365,WOODWARD & MANCHESTER,0
650,42.398599,-83.092656,WOODWARD & GLENDALE,0
651,42.400299,-83.093485,WOODWARD & FARRAND,0
652,42.392066,-83.088192,WOODWARD & BURLINGAME,0
653,42.392137,-83.08785,WOODWARD & ENGLEWOOD,0
654,42.386615,-83.084057,WOODWARD & ARDEN PARK,0
655,42.386186,-83.084168,WOODWARD & CHICAGO,0
656,42.387841,-83.08496,WOODWARD & BOSTON,0
657,42.387341,-83.085022,WOODWARD & BOSTON,0
658,42.395538,-83.090167,WOODWARD & CALIFORNIA,0
659,42.394733,-83.08996,WOODWARD & MONTEREY,0
660,42.396684,-83.091437,WOODWARD & CORTLAND,0
661,42.374063,-83.080081,SEWARD & 2ND,0
662,42.374319,-83.07595,WOODWARD & CHANDLER,0
663,42.37593,-83.076864,WOODWARD & MOUNT VERNON,0
664,42.374794,-83.076622,WOODWARD & SEWARD,0
665,42.381407,-83.080546,WOODWARD & HOLBROOK,0
666,42.381022,-83.080669,WOODWARD & HAZELWOOD,0
667,42.379474,-83.079657,WOODWARD & BLAINE,0
668,42.384459,-83.083034,WOODWARD & EDISON,0
669,42.379152,-83.079071,WOODWARD & HAGUE,0
670,42.377541,-83.077973,WOODWARD & EUCLID,0
671,42.372135,-83.074427,WOODWARD & CUSTER,0
672,42.372458,-83.074976,WOODWARD & BETHUNE,0
673,42.348258,-83.058808,WOODWARD & PARSONS,1
674,42.349654,-83.059342,WOODWARD & SELDEN,1
675,42.350942,-83.060171,WOODWARD & ALEXANDRINE,1
676,42.343586,-83.055384,WOODWARD & TEMPLE,1
677,42.344122,-83.055469,WOODWARD & EDMUND,1
678,42.339218,-83.052474,WOODWARD & FISHER FREEWAY,1
679,42.337007,-83.050757,WOODWARD & ADAMS,1
680,42.337956,-83.051255,WOODWARD & ELIZABETH,1
681,42.337679,-83.051329,WOODWARD & ELIZABETH,1
682,42.338689,-83.051657,WOODWARD & COLUMBIA,1
683,42.342037,-83.05441,WOODWARD & SPROAT,1
684,42.342135,-83.05408,WOODWARD & ADELAIDE,1
685,42.346333,-83.057333,WOODWARD & STIMSON,1
686,42.345984,-83.056784,WOODWARD & ERSKINE,1
687,42.358997,-83.065482,WOODWARD & FARNSWORTH,1
688,42.357763,-83.065056,WOODWARD & PUTNAM,1
689,42.359875,-83.066482,WOODWARD & KIRBY,1
690,42.357109,-83.064337,Woodward & Warren,1
691,42.356662,-83.064411,Woodward & Warren,1
692,42.352902,-83.061547,WOODWARD & CANFIELD,1
693,42.40582,-83.097157,WOODWARD & GERALD,0
694,42.404093,-83.096426,WOODWARD & GRAND AVE,0
695,42.40454,-83.096364,WOODWARD & GRAND,0
696,42.40574,-83.097511,WOODWARD & FORD,0
697,42.402071,-83.094729,WOODWARD & WINONA,0
698,42.401695,-83.094852,WOODWARD & TYLER,0
699,42.403019,-83.095559,WOODWARD & DAVISON,0
700,42.331764,-83.057131,MICHIGAN & 3RD,1
701,42.332033,-83.057704,MICHIGAN & 3RD,1
702,42.329265,-83.053643,LAFAYETTE & 2ND,1
703,42.329346,-83.054143,LAFAYETTE & 2ND,1
704,42.329846,-83.052958,LAFAYETTE & 1ST,1
705,42.33177,-83.054004,MICHIGAN & 1ST,1
706,42.331822,-83.052209,Michigan & Cass,1
707,42.332037,-83.052978,Michigan & Cass,1
708,42.330515,-83.051283,CASS & LAFAYETTE,1
709,42.330435,-83.05165,LAFAYETTE & CASS,1
710,42.330372,-83.051222,LAFAYETTE & CASS,1
711,42.330666,-83.050916,LAFAYETTE & WASHINGTON BLVD,1
712,42.331516,-83.050988,WASHINGTON BLVD & MICHIGAN,1
713,42.329263,-83.044092,JEFFERSON & WOODWARD,1
714,42.334818,-83.04496,RANDOLPH & MACOMB,1
715,42.334362,-83.044936,RANDOLPH & MONROE,1
716,42.335998,-83.044639,GRATIOT & BRUSH,1
717,42.408958,-82.922724,WARREN & UNIVERSITY,0
718,42.33699,-83.044088,GRATIOT & BEAUBIEN,1
719,42.33716,-83.043525,GRATIOT & BEAUBIEN,1
720,42.338884,-83.042263,GRATIOT & ST ANTOINE,1
721,42.338438,-83.043022,GRATIOT & ST ANTOINE,1
722,42.340904,-83.041099,GRATIOT & MID BLOCK,1
723,42.340841,-83.040744,GRATIOT& ANTIETAM,1
724,42.342235,-83.039593,GRATIOT & RIVARD,1
725,42.342209,-83.040106,GRATIOT & RIVARD,1
726,42.341771,-83.0404,GRATIOT & STROH DRIVE,1
727,42.345122,-83.037913,GRATIOT & FISHER FWY,1
728,42.344889,-83.037791,GRATIOT & JAY,1
729,42.34857,-83.035193,GRATIOT & ADELAIDE,1
730,42.349383,-83.034519,GRATIOT & ST AUBIN,1
731,42.349669,-83.034006,GRATIOT & ST AUBIN,1
732,42.355183,-83.030413,GRATIOT & JOSEPH CAMPAU,1
733,42.355718,-83.029825,GRATIOT & HEIDELBERG,1
734,42.357175,-83.028734,GRATIOT & MC DOUGALL,1
735,42.357041,-83.029235,GRATIOT & MC DOUGALL,1
736,42.359283,-83.026823,MACK & ELMWOOD,1
737,42.359355,-83.027202,MACK & ELMWOOD,1
738,42.36075,-83.026807,GRATIOT & MORAN,1
739,42.362322,-83.025276,GRATIOT & ELLERY,1
740,42.364869,-83.024146,GRATIOT & MOUNT ELLIOTT,0
741,42.364878,-83.023779,GRATIOT & MOUNT ELLIOTT,0
742,42.367353,-83.022111,GRATIOT & BEAUFAIT,0
743,42.36705,-83.022698,GRATIOT & BEAUFAIT,0
744,42.369837,-83.020663,GRATIOT & CONCORD,0
745,42.371723,-83.019326,GRATIOT & HELEN,0
746,42.377245,-83.015743,GRATIOT & BALDWIN,0
747,42.376986,-83.016294,GRATIOT & BALDWIN,0
748,42.3809,-83.01335,GRATIOT & MAXWELL,0
749,42.381606,-83.013275,GRATIOT & SEMINOLE,0
750,42.382687,-83.01216,GRATIOT & IROQUOIS,0
751,42.384554,-83.010762,GRATIOT & BURNS,0
752,42.384278,-83.011337,GRATIOT & BURNS,0
753,42.386323,-83.009706,GRATIOT & CRANE,0
754,42.391471,-83.012821,HARPER & ROHNS,0
755,42.39204,-83.010497,HARPER & MC CLELLAN,0
756,42.386932,-83.009668,GRATIOT & ROHNS,0
757,42.388119,-83.008454,GRATIOT & HOLCOMB,0
758,42.389148,-83.008231,GRATIOT & LAMBERT,0
759,42.392584,-83.009237,HARPER & ROBERT,0
760,42.390309,-83.007483,GRATIOT & MC CLELLAN,0
761,42.391417,-83.006441,GRATIOT & EDSEL FORD FREEWAY,0
762,42.392811,-83.005972,HARPER & GRATIOT,0
763,42.393088,-83.005813,Harper & Gratiot,0
764,42.39516,-83.003814,GRATIOT & STERRITT,0
765,42.394116,-83.004966,GRATIOT & PETER HUNT,0
766,42.395706,-83.003862,GRATIOT & GEORGIA,0
767,42.397519,-83.002365,GRATIOT & MARCUS,0
768,42.397242,-83.002048,GRATIOT & MARCUS,0
769,42.398243,-83.00152,GRATIOT & DEVINE,0
770,42.400031,-83.000867,GRATIOT & FRENCH,0
771,42.4002,-83.000402,GRATIOT & FRENCH,0
772,42.402764,-82.998805,10700 GRATIOT,0
773,42.404623,-82.997699,GRATIOT & CONNER,0
774,42.404588,-82.997968,Gratiot & Conner,0
775,42.406409,-82.996117,GRATIOT & OUTER DRIVE,0
776,42.407767,-82.995025,GRATIOT & GUNSTON,0
777,42.40783,-82.995428,GUNSTON & GRATIOT,0
778,42.41035,-82.993721,GRATIOT & GLENFIELD,0
779,42.412637,-82.992186,GRATIOT & FLANDERS,0
780,42.412683,-82.992443,GRATIOT & ST PATRICK,0
781,42.414755,-82.990712,GRATIOT & JANE,0
782,42.415649,-82.990502,GRATIOT & WHITHORN,0
783,42.417123,-82.989177,GRATIOT & FILBERT,0
784,42.417999,-82.989064,GRATIOT & BARLOW,0
785,42.422172,-82.986349,GRATIOT & GITRE,0
786,42.422788,-82.985552,GRATIOT & ROCHELLE,0
787,42.424458,-82.984471,GRATIOT & HAZELRIDGE,0
788,42.424584,-82.984874,GRATIOT & HICKORY,0
789,42.426853,-82.982715,GRATIOT & SEYMOUR,0
790,42.42663,-82.983143,GRATIOT & MC NICHOLS,0
791,42.427934,-82.982345,GRATIOT & GROTTO - CHUR,0
792,42.430677,-82.980526,GRATIOT & GLENWOOD,0
793,42.432062,-82.979519,GRATIOT & FAIRCREST,0
794,42.433001,-82.97932,GRATIOT & SARATOGA,0
795,42.434376,-82.977909,GRATIOT & FORDHAM,0
796,42.434385,-82.977885,FORDHAM & GRATIOT,0
797,42.437004,-82.9768,GRATIOT & LAPPIN,0
798,42.43711,-82.976249,GRATIOT & LAPPIN,0
799,42.438415,-82.975817,GRATIOT & PINEWOOD,0
800,42.43938,-82.974798,GRATIOT & NOVARA,0
801,42.440827,-82.973681,GRATIOT & MANNING,0
802,42.440229,-82.974465,GRATIOT & MANNING,0
803,42.442605,-82.972623,GRATIOT & STATE FAIR,0
804,42.442382,-82.973076,GRATIOT & STATE FAIR,0
805,42.444445,-82.971161,GRATIOT & FAIRMOUNT,0
806,42.444186,-82.971602,GRATIOT & FAIRMOUNT,0
807,42.446205,-82.970152,GRATIOT & BRINGARD,0
808,42.449047,-82.968479,GRATIOT & CARLISLE,0
809,42.450022,-82.95864,8 MILE & REX,0
810,42.45012,-82.953734,8 MILE & BOULDER,0
811,42.450142,-82.951238,8 MILE & CORDELL,0
812,42.447126,-82.94107,EASTLAND DRIVE & WEBBER DRIVE,0
813,42.366737,-83.030177,FOREST & MORAN,0
814,42.368922,-83.03214,WARREN & MORAN,0
815,42.367272,-83.028539,FOREST & ELLERY,0
816,42.368512,-83.026238,MOUNT ELLIOTT & FOREST,0
817,42.368244,-83.026043,FOREST & MOUNT ELLIOTT,0
818,42.368083,-83.026349,MOUNT ELLIOTT & FOREST,0
819,42.363213,-83.023148,MOUNT ELLIOTT & SYLVESTER,0
820,42.3664,-83.024826,MOUNT ELLIOTT & CANFIELD,0
821,42.365988,-83.024937,MOUNT ELLIOTT & CANFIELD,0
822,42.370357,-83.028213,WARREN & MOUNT ELLIOT,0
823,42.370607,-83.027626,MOUNT ELLIOTT & WARREN,0
824,42.37024,-83.027786,MOUNT ELLIOTT & WARREN,0
825,42.369135,-83.023597,FOREST & BEAUFAIT,0
826,42.372006,-83.023908,WARREN & BELLEVUE,0
827,42.369946,-83.021542,FOREST & CONCORD,0
828,42.370605,-83.019867,Forest & Gratiot,0
829,42.372746,-83.021926,WARREN & CANTON,0
830,42.37393,-83.018318,Gratiot & Warren,0
831,42.3741,-83.018318,WARREN & GRATIOT,0
832,42.374359,-83.017889,GRATIOT & WARREN,0
833,42.374786,-83.01608,WARREN & TOWNSEND,0
834,42.37516,-83.015028,WARREN & BALDWIN,0
835,42.372868,-83.013262,FOREST & BALDWIN,0
836,42.377251,-83.013482,VAN DYKE & FARNSWORTH,0
837,42.374063,-83.010949,VAN DYKE & FOREST,0
838,42.373661,-83.011048,VAN DYKE & FOREST,0
839,42.376871,-83.01066,WARREN & MAXWELL,0
840,42.374686,-83.009065,FOREST & MAXWELL,0
841,42.375524,-83.006875,FOREST & IROQUOIS,0
842,42.376611,-83.004061,FOREST & FISCHER,0
843,42.37794,-83.007981,WARREN & SENECA,0
844,42.378689,-83.006121,WARREN & FISCHER,0
845,42.423658,-82.992789,MC NICHOLS & GOULBURN,0
846,42.423525,-82.993634,MC NICHOLS & GOULBURN,0
847,42.42446,-82.991234,MC NICHOLS & FAIRPORT,0
848,42.424343,-82.99077,MC NICHOLS & FAIRPORT,0
849,42.425119,-82.989336,MC NICHOLS & JOANN,0
850,42.425064,-82.988688,MC NICHOLS & JOANN,0
851,42.425947,-82.987059,MC NICHOLS & HICKORY,0
852,42.425848,-82.986546,MC NICHOLS & HICKORY,0
853,42.426624,-82.985039,MC NICHOLS & SCHOENHERR,0
854,42.42648,-82.984697,MC NICHOLS & SCHOENHERR,0
855,42.426768,-82.979975,SEYMOUR & GROVER,0
856,42.427019,-82.980317,SEYMOUR & GROVER,0
857,42.427031,-82.977223,SEYMOUR & PEORIA,0
858,42.42678,-82.976906,SEYMOUR & PEORIA,0
859,42.422948,-82.974729,CHALMERS & ROCHELLE,0
860,42.423459,-82.97507,CHALMERS & YOUNG,0
861,42.424666,-82.974821,CHALMERS & HAZELRIDGE,0
862,42.425132,-82.975187,CHALMERS & CEDARGROVE,0
863,42.426831,-82.975169,CHALMERS & SEYMOUR,0
864,42.427152,-82.97485,CHALMERS & SEYMOUR,0
865,42.426866,-82.974716,SEYMOUR & CHALMERS,0
866,42.427108,-82.97529,SEYMOUR & CHALMERS,0
867,42.429067,-82.974844,CHALMERS & MAPLERIDGE,0
868,42.42955,-82.975258,CHALMERS & PARKGROVE,0
869,42.430623,-82.974949,CHALMERS & GLENWOOD,0
870,42.431044,-82.975351,CHALMERS & LINNHURST,0
871,42.432045,-82.97503,CHALMERS & FAIRCREST,0
872,42.318258,-83.157849,WYOMING & SOUTHERN,0
873,42.318339,-83.158301,WYOMING & SOUTHERN,0
874,42.30842,-83.156268,MILLER & FORD GATE #4,0
875,42.308242,-83.156536,MILLER & FORD GT#4,0
876,42.310066,-83.157756,MILLER & EAGLE,0
877,42.314788,-83.15569,WYOMING & MERCIER,0
878,42.31502,-83.155458,WYOMING & MERCIER,0
879,42.32256,-83.157627,WYOMING & PORATH COURT,0
880,42.324339,-83.156856,WYOMING & MARVIN,0
881,42.328506,-83.1533,MICHIGAN & WESTERN,0
882,42.328622,-83.153654,MICHIGAN & WEIR,0
883,42.328863,-83.15214,MICHIGAN & SHARON,0
884,42.329471,-83.150747,MICHIGAN & ADDISON,0
885,42.329515,-83.149465,MICHIGAN & CABOT,0
886,42.330006,-83.146594,MICHIGAN & OGDEN,0
887,42.330015,-83.147669,MICHIGAN & TRENTON,0
888,42.330398,-83.144261,MICHIGAN & LONYO,0
889,42.330551,-83.144884,MICHIGAN & LONYO,0
890,42.330889,-83.142246,MICHIGAN & ELMER,0
891,42.330969,-83.140634,MICHIGAN & LUMLEY,0
892,42.331237,-83.140304,MICHIGAN & SPRINGWELL,0
893,42.330869,-83.137324,MICHIGAN & CENTRAL,0
894,42.331147,-83.137861,MICHIGAN & CENTRAL,0
895,42.331209,-83.13576,MICHIGAN & PROCTOR,0
896,42.330921,-83.133648,MICHIGAN & FREER,0
897,42.331181,-83.133672,MICHIGAN & CHOPIN,0
898,42.330964,-83.130411,MICHIGAN & LARKINS,0
899,42.330981,-83.127248,MICHIGAN & MARTIN,0
900,42.331231,-83.127577,MICHIGAN & MARTIN,0
901,42.331068,-83.123132,MICHIGAN & CICOTTE,0
902,42.33131,-83.123645,MICHIGAN & CICOTTE,0
903,42.331081,-83.115352,MICHIGAN & WESSON,0
904,42.331401,-83.113153,35TH & MICHIGAN,0
905,42.331168,-83.111407,MICHIGAN & JUNCTION,0
906,42.331436,-83.111834,MICHIGAN & JUNCTION,0
907,42.331166,-83.10811,MICHIGAN & 31ST,0
908,42.331434,-83.108329,MICHIGAN & 31ST,0
909,42.331279,-83.104189,MICHIGAN & 28TH,0
910,42.331512,-83.104506,MICHIGAN & 28TH,0
911,42.331349,-83.101942,MICHIGAN & CLARK,0
912,42.331564,-83.10254,MICHIGAN & CLARK,0
913,42.331552,-83.098778,MICHIGAN & HUBBARD,0
914,42.33139,-83.096531,MICHIGAN & VINEWOOD,0
915,42.331647,-83.093417,MICHIGAN & 25TH,1
916,42.33158,-83.088751,MICHIGAN & 22ND,1
917,42.331759,-83.089056,MICHIGAN & TILLMAN,1
918,42.331469,-83.083817,MICHIGAN & 20TH,1
919,42.331467,-83.081594,MICHIGAN & 18TH,1
920,42.331736,-83.082302,MICHIGAN & 18TH,1
921,42.331733,-83.079273,MICHIGAN & 16TH,1
922,42.331525,-83.076514,Michigan & 14th,1
923,42.331739,-83.076696,Michigan & 14th,1
924,42.33145,-83.073131,MICHIGAN & VERMONT,1
925,42.331395,-83.071824,MICHIGAN & ROSA PARKS BLVD,1
926,42.331637,-83.072227,MICHIGAN & ROSA PARKS BLVD,1
927,42.331366,-83.069308,MICHIGAN & COCHRANE,1
928,42.331593,-83.063885,MICHIGAN & LEVERETTE,1
929,42.331807,-83.063848,MICHIGAN & BROOKLYN,1
930,42.331922,-83.062394,MICHIGAN & JOHN C LODGE,1
931,42.332444,-83.041154,CONGRESS & BEAUBIEN,1
932,42.333106,-83.095747,GRAND BLVD & ASH,0
933,42.329268,-83.093335,GRAND BLVD & RISDON,1
934,42.396637,-83.198378,GREENFIELD & EATON,0
935,42.33128,-83.118882,MICHIGAN & MILITARY,0
936,42.33456,-83.115324,35TH & BUCHANAN,0
937,42.335311,-83.114443,JUNCTION & BUCHANAN,0
938,42.338755,-83.103703,GRAND BLVD & BUCHANAN,0
939,42.339238,-83.103678,GRAND BLVD & BUCHANAN,0
940,42.345018,-83.084504,14TH & BUCHANAN,1
941,42.345812,-83.081949,GRAND RIVER & BUCHANAN,1
942,42.346974,-83.080701,ROSA PARKS BLVD & CANFIELD,1
943,42.348258,-83.076387,TRUMBULL & CANFIELD,1
944,42.347954,-83.076607,TRUMBULL & CANFIELD,1
945,42.346772,-83.07551,TRUMBULL & WILLIS,1
946,42.346459,-83.075706,TRUMBULL & WILLIS,1
947,42.34407,-83.074342,TRUMBULL & SELDEN,1
948,42.344598,-83.07428,TRUMBULL & SELDEN,1
949,42.343618,-83.068943,MARTIN LUTHER KING BLVD & LODGE FWY,1
950,42.343482,-83.06727,MARTIN LUTHER KING BLVD & LODGE FWY,1
951,42.344124,-83.065192,3RD & MARTIN LUTHER KING BOULEVARD,1
952,42.345024,-83.062699,MARTIN LUTHER KING BLVD & 2ND,1
953,42.345177,-83.063102,MARTIN LUTHER KING BLVD & 2ND,1
954,42.345526,-83.062979,2ND & MARTIN LUTHER KING BOULEVARD,1
955,42.345675,-83.060474,MARTIN LUTHER KING BLVD & CASS,1
956,42.345694,-83.061085,MARTIN LUTHER KING BLVD & CASS FAR,1
957,42.347184,-83.057955,Woodward & Martin Luther King,1
958,42.347631,-83.05799,Woodward & Mack,1
959,42.348362,-83.055546,MACK & JOHN R,1
960,42.348389,-83.056144,Mack & John R,1
961,42.3497,-83.052403,MACK & BEAUBIEN,1
962,42.349565,-83.051952,MACK & BEAUBIEN,1
963,42.350261,-83.050289,MACK & ST ANTIONE,1
964,42.344383,-83.065338,MARTIN LUTHER KING BLVD & 3RD,1
965,42.350333,-83.050838,MACK & ST ANTOINE,1
966,42.351572,-83.047635,CHRYSLER FREEWAY & MACK,1
967,42.351055,-83.048772,MACK & CHRYSLER FREEWAY,1
968,42.35183,-83.045704,MACK & RIVARD,1
969,42.352624,-83.044456,MACK & RUSSELL,1
970,42.352347,-83.044897,MACK & RUSSELL,1
971,42.35207,-83.044555,RUSSELL & MACK,1
972,42.353373,-83.042659,MACK & RIOPELLE,1
973,42.35357,-83.042915,MACK & RIOPELLE,1
974,42.355139,-83.038073,MACK & ST AUBIN,1
975,42.355246,-83.038574,MACK & ST AUBIN,1
976,42.356619,-83.034588,CHENE & MACK,1
977,42.356351,-83.034723,CHENE & MACK,1
978,42.356449,-83.034466,MACK & CHENE,1
979,42.356548,-83.034979,MACK & CHENE,1
980,42.357224,-83.032473,MACK & GRANDY,1
981,42.357341,-83.032986,MACK & GRANDY,1
982,42.345336,-83.100933,WARREN & 24TH,0
983,42.345183,-83.100469,WARREN & 24TH,0
984,42.346156,-83.098171,WARREN & TILLMAN,0
985,42.346298,-83.09662,WARREN & JEFFERIES FWY,0
986,42.350056,-83.077178,FOREST & TRUMBULL,1
987,42.350333,-83.077446,TRUMBULL & FOREST,1
988,42.349895,-83.077581,TRUMBULL & FOREST,1
989,42.342984,-83.061567,2ND & CHARLOTTE,1
990,42.344592,-83.059975,CASS & PETERBORO,1
991,42.343939,-83.059891,CASS & PETERBORO,1
992,42.347924,-83.064391,2ND & SELDEN,1
993,42.345953,-83.061036,CASS & MARTIN LUTHER KING BOULEVARD,1
994,42.347581,-83.06168,CASS & PARSON,1
995,42.3447,-83.060403,CASS & STIMSON,1
996,42.38084,-83.109891,CALVERT & LASALLE,0
997,42.380705,-83.109769,CALVERT & LASALLE,0
998,42.382664,-83.10973,LASALLE & LAWRENCE,0
999,42.381527,-83.107434,14TH & CALVERT,0
1000,42.381715,-83.107629,CALVERT & 14TH,0
1001,42.381571,-83.107532,CALVERT & 14TH,0
1002,42.383188,-83.103899,ROSA PARKS BLVD & CALVERT,0
1003,42.383063,-83.10423,CALVERT & 12TH,0
1004,42.384127,-83.104387,ROSA PARKS BLVD & COLLINGWOOD,0
1005,42.3813,-83.102729,ROSA PARKS BLVD & BOSTON,0
1006,42.383883,-83.101087,CALVERT & WOODROW WILSON,0
1007,42.385061,-83.097627,CALVERT & BYRON,0
1008,42.385724,-83.098579,BYRON & COLLINGWOOD,0
1009,42.386043,-83.094973,CALVERT & HAMILTON,0
1010,42.385891,-83.095254,HAMILTON & CALVERT,0
1011,42.386329,-83.095156,HAMILTON & CALVERT,0
1012,42.387051,-83.092136,CALVERT & THIRD,0
1013,42.38817,-83.092819,COLLINGWOOD & THIRD,0
1014,42.389241,-83.089981,COLLINGWOOD & SECOND,0
1015,42.388292,-83.088797,CALVERT & SECOND,0
1016,42.389202,-83.086314,CALVERT & WOODWARD,0
1017,42.389595,-83.08613,WOODWARD & TROWBRIDGE,0
1018,42.389193,-83.086229,WOODWARD & CALVERT,0
1019,42.390508,-83.086618,HARMON & WOODWARD,0
1020,42.390499,-83.086728,WOODWARD & HARMON,0
1021,42.390097,-83.086851,WOODWARD & COLLINGWOOD,0
1022,42.391463,-83.083927,HARMON & JOHN R,0
1023,42.390532,-83.082841,TROWBRIDGE & JOHN R,0
1024,42.392757,-83.080783,HARMON & BRUSH,0
1025,42.391549,-83.079856,TROWBRIDGE & BRUSH,0
1026,42.392879,-83.07758,OAKLAND & TROWBRIDGE,0
1027,42.393452,-83.077469,CANIFF & OAKLAND,0
1028,42.393478,-83.07753,OAKLAND & CANIFF,0
1029,42.393255,-83.077372,CANIFF & OAKLAND,0
1030,42.39373,-83.078202,HARMON & OAKLAND,0
1031,42.393817,-83.075562,CANIFF & CAMERON,0
1032,42.394459,-83.07391,CANIFF & CARDONI,0
1033,42.39512,-83.072772,CANIFF & RUSSELL,0
1034,42.394958,-83.072565,CANIFF & RUSSELL,0
1035,42.395869,-83.070265,CANIFF & GRAND HAVEN,0
1036,42.396877,-83.067733,CANIFF & CHRYSLER FREEWAY,0
1037,42.396493,-83.068956,CANIFF & CHRYSLER FREEWAY,0
1038,42.397484,-83.066595,CANIFF & ST. AUBIN,0
1039,42.397545,-83.065665,CANIFF & LUMPKIN,0
1040,42.398705,-83.062851,CANIFF & BROMBACH,0
1041,42.398589,-83.062693,CANIFF & BROMBACH,0
1042,42.399999,-83.059939,JOSEPH CAMPAU & CANIFF,0
1043,42.399265,-83.059598,JOSEPH CAMPAU & TROWBRIDGE (Caniff),0
1044,42.399794,-83.060233,CANIFF & JOSEPH CAMPAU,0
1045,42.399784,-83.05972,CANIFF & JOSEPH CAMPAU,0
1046,42.40106,-83.056979,CANIFF & CHAREST,0
1047,42.401095,-83.056098,CANIFF & GALLAGHER,0
1048,42.389068,-83.042836,CONANT & SALLAN,0
1049,42.388683,-83.04269,CONANT & HAMTRAMCK DRIVE,0
1050,42.390743,-83.044592,CONANT & MILLER,0
1051,42.362634,-83.01792,MACK & BELLEVUE,0
1052,42.386247,-83.039371,CONANT & MOUNT ELLIOTT,0
1053,42.390233,-83.037113,MILLER & MOUNT ELLIOTT,0
1054,42.390385,-83.037296,MILLER & MOUNT ELLIOTT,0
1055,42.403691,-83.049711,CANIFF & ELLERY,0
1056,42.404475,-83.047081,CANIFF & BUFFALO,0
1057,42.404502,-83.047521,CANIFF & BUFFALO,0
1058,42.390452,-83.033836,MILLER & FOSTER,0
1059,42.390297,-83.031502,MILLER & SHERWOOD,0
1060,42.390378,-83.031942,MILLER & SHERWOOD,0
1061,42.390636,-83.030291,MILLER & HELEN,0
1062,42.390383,-83.02891,MILLER & CARRIE,0
1063,42.390649,-83.026697,MILLER & ST CYRIL,0
1064,42.390385,-83.023043,MILLER & BALDWIN,0
1065,42.390044,-83.022812,VAN DYKE & MILLER,0
1066,42.390885,-83.022589,Van Dyke & Miller (Curt),0
1067,42.391091,-83.02287,VAN DYKE & MAYWOOD,0
1068,42.392334,-83.022525,VAN DYKE & WALDEN,0
1069,42.392817,-83.022988,VAN DYKE & ERBIE,0
1070,42.392969,-83.022438,GEORGIA & VAN DYKE,0
1071,42.393171,-83.019723,GEORGIA & MAXWELL,0
1072,42.393332,-83.020016,GEORGIA & MAXWELL,0
1073,42.39341,-83.01817,GEORGIA & IROQUOIS,0
1074,42.395161,-83.023031,VAN DYKE & KERN,0
1075,42.395938,-83.022687,VAN DYKE & MARCUS,0
1076,42.397209,-83.022696,VAN DYKE & EDGEWOOD,0
1077,42.396735,-83.023015,VAN DYKE & ROLAND,0
1078,42.398193,-83.023011,VAN DYKE & NETT,0
1079,42.398863,-83.022679,VAN DYKE & WOODLAWN,0
1080,42.400035,-83.022738,VAN DYKE & GRINNELL,0
1081,42.400009,-83.02308,VAN DYKE & GRINNELL,0
1082,42.400583,-83.017907,ERWIN & GRINNELL,0
1083,42.389928,-83.016065,HARPER & SENECA,0
1084,42.390384,-83.015807,HARPER & BURNS,0
1085,42.391042,-83.013275,HARPER & CRANE,0
1086,42.39484,-83.01769,ERWIN & MARION,0
1087,42.395645,-83.017272,ERWIN & RUTH,0
1088,42.396388,-83.017686,ERWIN & OLYMPIA,0
1089,42.397514,-83.017328,ERWIN & EDGEWOOD,0
1090,42.398123,-83.017669,ERWIN & KNODELL,0
1091,42.400126,-83.017456,ERWIN & TRAVERSE,0
1092,42.401226,-83.017245,8640 GRINNELL,0
1093,42.400849,-83.016403,GRINNELL 8750,0
1094,42.401289,-83.011096,9350 GRINNELL,0
1095,42.400983,-83.009972,GRINNELL 9449,0
1096,42.401169,-83.008883,GRINNELL & RAYMOND,0
1097,42.401017,-83.008419,GRINNELL & RAYMOUND,0
1098,42.401172,-83.004274,GRINNELL & GRACE,0
1099,42.401037,-83.003773,GRINELL & GRACE,0
1100,42.40046,-83.001147,Traverse & French Road (Gratiot),0
1101,42.40296,-83.023207,VAN DYKE & JORDAN,0
1102,42.403389,-83.022876,VAN DYKE & JORDAN,0
1103,42.406699,-83.023393,VAN DYKE & TAPPAN,0
1104,42.407817,-83.023024,VAN DYKE & LEANDER,0
1105,42.408381,-83.023389,VAN DYKE & PALMETTO,0
1106,42.406995,-82.992936,OUTER DR & GUNSTON,0
1107,42.407076,-82.993523,OUTER DR & GUNSTON,0
1108,42.408047,-82.990696,OUTER DR & BARRETT,0
1109,42.408126,-82.989999,OUTER DR & BARRETT,0
1110,42.409016,-82.987404,OUTER DR & ROSEBERRY,0
1111,42.408964,-82.988199,OUTER DR & ROSEBERRY,0
1112,42.409924,-82.984626,OUTER DR & ANNSBURY,0
1113,42.409943,-82.985286,OUTER DR & ANNSBURY,0
1114,42.411065,-82.982311,OUTER DRIVE & PARK DRIVE,0
1115,42.410921,-82.981933,OUTER DRIVE & PARK DRIVE,0
1116,42.411785,-82.979766,OUTER DR & DICKERSON,0
1117,42.411811,-82.979081,OUTER DR & DICKERSON,0
1118,42.412728,-82.97629,OUTER DR & COPLIN,0
1119,42.412809,-82.976754,OUTER DR & COPLIN,0
1120,42.41377,-82.973976,OUTER DR & NEWPORT,0
1121,42.413814,-82.973291,OUTER DR & NEWPORT,0
1122,42.414892,-82.970915,CHALMERS & OUTER DRIVE,0
1123,42.414525,-82.971075,CHALMERS & OUTER DRIVE,0
1124,42.414697,-82.967247,OUTER DRIVE & QUEEN,0
1125,42.414517,-82.966588,OUTER DR & QUEEN,0
1126,42.415936,-82.964822,HAYES & BONITA,0
1127,42.414729,-82.964985,HAYES & OUTER DRIVE,0
1128,42.416313,-82.965224,HAYES & KILBOURNE,0
1129,42.417511,-82.964927,HAYES & MOGUL,0
1130,42.418075,-82.965292,HAYES & GLENFIELD,0
1131,42.420847,-82.965001,HAYES & HOUSTON- WHITTIER,0
1132,42.420472,-82.965284,HAYES & HOUSTON - WHITTIER,0
1133,42.422493,-82.965118,HAYES & MAYFIELD,0
1134,42.42287,-82.965484,HAYES & ROCHELLE,0
1135,42.423978,-82.965125,HAYES & YOUNG,0
1136,42.425785,-82.965119,HAYES & CEDARGROVE,0
1137,42.425481,-82.965487,HAYES & CEDARGROVE,0
1138,42.427315,-82.965554,SEYMOUR & HAYES,0
1139,42.427117,-82.964944,SEYMOUR & HAYES,0
1140,42.429461,-82.965168,HAYES & MAPLERIDGE,0
1141,42.429936,-82.965644,HAYES & PARKGROVE,0
1142,42.431,-82.965322,HAYES & GLENWOOD,0
1143,42.431403,-82.965688,HAYES & LINNHURST,0
1144,42.432431,-82.965317,HAYES & FAIRCREST,0
1145,42.432977,-82.965682,HAYES & SARATOGA,0
1146,42.434068,-82.965348,HAYES & EASTWOOD,0
1147,42.435231,-82.965345,7 MILE & HAYES,0
1148,42.435454,-82.965527,HAYES & 7 MILE,0
1149,42.435097,-82.965847,HAYES & 7 MILE,0
1150,42.437083,-82.965791,HAYES & LAPPIN,0
1151,42.438209,-82.965518,HAYES & CORAM,0
1152,42.439256,-82.965833,HAYES & NOVARA,0
1153,42.440365,-82.965621,HAYES & LIBERAL,0
1154,42.440697,-82.965987,HAYES & MANNING,0
1155,42.441949,-82.965652,HAYES & TACOMA,0
1156,42.442513,-82.966054,HAYES & STATE FAIR,0
1157,42.443532,-82.965721,HAYES & ROSSINI,0
1158,42.44423,-82.966085,HAYES & FAIRMOUNT,0
1159,42.445544,-82.965726,HAYES & EASTBURN,0
1160,42.446082,-82.966091,HAYES & BRINGARD,0
1161,42.447298,-82.96583,HAYES & EDMORE,0
1162,42.44788,-82.966171,HAYES & COLLINGHAM,0
1163,42.449006,-82.965825,HAYES & CARLISLE,0
1164,42.449758,-82.966189,Hayes & Eight Mile,0
1165,42.449802,-82.965785,EIGHT MILE & HAYES,0
1166,42.386768,-83.09584,HAMILTON & COLLINGWOOD,0
1167,42.387063,-83.096023,COLLINGWOOD & HAMILTON,0
1168,42.387206,-83.095778,HAMILTON & COLLINGWOOD,0
1169,42.389444,-83.097657,HAMILTON & WEBB,0
1170,42.38973,-83.097461,HAMILTON & WEBB,0
1171,42.387887,-83.096315,HAMILTON & LAWRENCE,0
1172,42.398951,-83.050577,CONANT & EDWIN,0
1173,42.401287,-83.05177,CONANT & BELMONT,0
1174,42.400894,-83.051856,CONANT & BELMONT,0
1175,42.399971,-83.050831,CONANT & EVALINE,0
1176,42.397546,-83.049614,CONANT & DOREMUS,0
1177,42.397841,-83.049393,CONANT & DOREMUS,0
1178,42.385745,-83.038675,MOUNT ELLIOTT & STRONG,0
1179,42.385414,-83.038725,MOUNT ELLIOTT & STRONG,0
1180,42.405691,-83.054658,CONANT & TALBOT,0
1181,42.407069,-83.055634,CONANT & COMMOR,0
1182,42.406667,-83.055806,CONANT & COMMOR,0
1183,42.404312,-83.053683,CONANT & HAROLD,0
1184,42.40468,-83.054355,CONANT & CASMERE,0
1185,42.40957,-83.023301,VAN DYKE & MONTLIEU,0
1186,42.417426,-82.972876,CHALMERS & GLENFIELD,0
1187,42.411176,-82.96858,CHALMERS & LONGVIEW,0
1188,42.410827,-82.968776,CHALMERS & LONGVIEW,0
1189,42.413092,-82.969735,CHALMERS & WILSHIRE,0
1190,42.412708,-82.969858,CHALMERS & WILSHIRE,0
1191,42.415519,-82.971683,CHALMERS & ROSEMARY,0
1192,42.416781,-82.972034,CHALMERS & KILBOURNE,0
1193,42.420318,-82.974529,CHALMERS & HOUSTON WHITTIER ROAD,0
1194,42.420203,-82.974848,CHALMERS & HOUSTON WHITTIER ROAD,0
1195,42.421338,-82.974722,CHALMERS & ALMA,0
1196,42.421831,-82.975087,CHALMERS & MAYFIELD,0
1197,42.418832,-82.973788,CHALMERS & FLANDERS,0
1198,42.418482,-82.973215,CHALMERS & WILFRED,0
1199,42.427033,-82.972967,SEYMOUR & CELESTINE,0
1200,42.426773,-82.972662,SEYMOUR & CELESTINE,0
1201,42.427118,-82.970508,SEYMOUR & MAC CRARY,0
1202,42.426867,-82.970008,SEYMOUR & MAC CRARY,0
1203,42.418291,-82.956156,WHITTIER & WAYBURN,0
1204,42.41769,-82.95529,WHITTIER & WAYBURN,0
1205,42.417321,-82.954032,WHITTIER & LAKEPOINTE,0
1206,42.41681,-82.953374,WHITTIER & ROXBURY,0
1207,42.421505,-82.962994,KELLY & WHITTIER,0
1208,42.421085,-82.963191,WHITTIER & KELLY,0
1209,42.421988,-82.962919,KELLY & MAYFIELD,0
1210,42.42289,-82.961766,KELLY & YORKSHIRE,0
1211,42.424579,-82.960941,KELLY & YOUNG,0
1212,42.427131,-82.967977,SEYMOUR & QUEEN,0
1213,42.42688,-82.967598,SEYMOUR & QUEEN,0
1214,42.427078,-82.962828,SEYMOUR & BROCK,0
1215,42.419944,-82.960223,WHITTIER & DUCHESS,0
1216,42.419595,-82.959967,WHITTIER & DUCHESS,0
1217,42.418669,-82.957671,WHITTIER & WHITEHILL,0
1218,42.419082,-82.958245,WHITTIER & WHITEHILL,0
1219,42.397347,-82.989334,Conner & Harper,0
1220,42.422555,-82.941026,MORANG & WORDEN,0
1221,42.399318,-82.991419,CONNER & WADE,0
1222,42.400644,-82.992882,CONNER & CORBETT,0
1223,42.400439,-82.993066,CONNER & CORBETT,0
1224,42.398432,-82.990957,CONNER & CAMDEN,0
1225,42.394389,-82.985113,CONNER & OLGA,0
1226,42.394757,-82.985723,CONNER & GUNSTON,0
1227,42.390103,-82.978917,CONNER & FRANKFORT,0
1228,42.39038,-82.97883,CONNER & FRANKFORT,0
1229,42.389294,-82.976572,WARREN & CONNER,0
1230,42.388682,-82.973861,CONNER & EUGENE,0
1231,42.388189,-82.973496,CONNER & FOREST,0
1232,42.387371,-82.971017,CONNER & CANFIELD,0
1233,42.386915,-82.971031,CONNER & CANFIELD,0
1234,42.385346,-82.968836,CONNER & WAVENEY,0
1235,42.417392,-83.00149,GUNSTON & ENGLESIDE,0
1236,42.422065,-83.003935,HOOVER & SAUER,0
1237,42.421511,-83.004499,HOOVER & SAUER,0
1238,42.423818,-83.00404,HOOVER & CLOUGH,0
1239,42.423202,-83.004592,HOOVER & CLOUGH,0
1240,42.425285,-83.004122,HOOVER & GEITZEN,0
1241,42.424767,-83.004869,HOOVER & GEITZEN,0
1242,42.42719,-83.004129,HOOVER & GREINER,0
1243,42.426672,-83.004668,HOOVER & GREINER,0
1244,42.428926,-83.00416,HOOVER & PARKGROVE,0
1245,42.428587,-83.004944,HOOVER & PARKGROVE,0
1246,42.432388,-83.004432,HOOVER & EASTWOOD,0
1247,42.432245,-83.004763,HOOVER & EASTWOOD,0
1248,42.434444,-83.004243,HOOVER & 7 MILE,0
1249,42.434454,-83.004671,7 MILE & HOOVER,0
1250,42.434123,-83.004537,HOOVER & SEVEN MILE,0
1251,42.434167,-83.004109,7 MILE & HOOVER,0
1252,42.436038,-83.00485,HOOVER & LAPPIN,0
1253,42.438337,-83.005052,HOOVER & STURGIS,0
1254,42.438497,-83.004721,HOOVER & STURGIS,0
1255,42.439652,-83.005476,HOOVER & MANNING,0
1256,42.441699,-83.004737,HOOVER & STATE FAIR,0
1257,42.441289,-83.005472,HOOVER & STATE FAIR,0
1258,42.445163,-83.005926,HOOVER & BRINGARD,0
1259,42.346621,-83.002887,JEFFERSON & HELEN,1
1260,42.406038,-82.998857,E. OUTER DRIVE & CONNER,0
1261,42.403977,-82.996234,CONNER & WILSHIRE,0
1262,42.402427,-82.994405,CONNER & LONGVIEW,0
1263,42.402132,-82.994552,CONNER & LONG VIEW,0
1264,42.411376,-82.997655,GUNSTON & ST PATRICK,0
1265,42.412719,-82.998642,GUNSTON & WHITHORN,0
1266,42.413909,-82.998932,GUNSTON & FINDLAY,0
1267,42.412306,-82.997897,GUNSTON & SANFORD,0
1268,42.415781,-83.000455,GUNSTON & COLLEGE,0
1269,42.414241,-82.999494,GUNSTON & CHRISTY,0
1270,42.415431,-82.999857,GUNSTON & MINDEN,0
1271,42.409944,-82.996865,GUNSTON & WILFRED,0
1272,42.362769,-82.953013,NAVAHOE & ESSEX,0
1273,42.365485,-82.955887,CONNER & FREUD,0
1274,42.365927,-82.953381,KITCHENER & FREUD,0
1275,42.362756,-82.946195,LENOX & AVONDALE,0
1276,42.362578,-82.946391,LENOX & AVONDALE,0
1277,42.364557,-82.947948,ESSEX & LENOX,0
1278,42.364113,-82.949673,ESSEX & EMMERSON,0
1279,42.363189,-82.943335,AVONDALE & PIPER,0
1280,42.363297,-82.943811,AVONDALE & PIPER,0
1281,42.364257,-82.940826,AVONDALE & LAKEWOOD,0
1282,42.363002,-82.939364,LAKEWOOD & KORTE,0
1283,42.363429,-82.938226,KORTE & CHALMERS,0
1284,42.376024,-82.962951,CONNER & VERNOR,0
1285,42.375542,-82.963026,CONNER & VERNOR,0
1286,42.373947,-82.961663,CONNER & KERCHEVAL,0
1287,42.373428,-82.961689,CONNER & KERCHEVAL,0
1288,42.380135,-82.966005,CONNER & GOETHE,0
1289,42.378218,-82.964435,CONNER & CHARLEVOIX,0
1290,42.377807,-82.964473,CONNER & CHARLEVOIX,0
1291,42.370182,-82.956959,JEFFERSON & ALGONQUIN,0
1292,42.370281,-82.956995,JEFFERSON & ALGONQUIN,0
1293,42.370455,-82.954832,JEFFERSON & CONTINENTAL,0
1294,42.343779,-83.181032,WARREN & R/R,0
1295,42.388959,-82.979507,WARREN & R/R 2,0
1296,42.389239,-82.975705,WARREN & CONNER,0
1297,42.390016,-82.974663,WARREN & EUGENE,0
1298,42.390198,-82.973602,WARREN & MAYNARD,0
1299,42.390309,-82.973672,WARREN & MAYNARD,0
1300,42.388699,-82.979031,WARREN & SHOP/CTR,0
1301,42.391029,-82.971115,WARREN & ANDERDON,0
1302,42.391137,-82.971701,WARREN & ANDERDON,0
1303,42.391616,-82.968937,WARREN & SPRINGLE,0
1304,42.419471,-83.010105,MC NICHOLS & ALGONAC,0
1305,42.419722,-83.010313,MC NICHOLS & ALGONAC,0
1306,42.426927,-83.013999,OUTER DR & GREINER,0
1307,42.419575,-83.007696,MC NICHOLS & TEPPERT,0
1308,42.419835,-83.007867,MC NICHOLS & TEPPERT,0
1309,42.41992,-83.00547,MC NICHOLS & ALBION,0
1310,42.419507,-83.004089,MC NICHOLS & PORTLANCE,0
1311,42.42121,-83.00044,MC NICHOLS & BRADFORD,0
1312,42.421359,-82.998532,MC NICHOLS & DRESDEN,0
1313,42.421832,-82.998029,MC NICHOLS & STRASBURG,0
1314,42.422054,-82.996744,MC NICHOLS & HAMBURG,0
1315,42.42275,-82.995593,MC NICHOLS & BARLOW,0
1316,42.392142,-82.968483,WARREN & GRAY,0
1317,42.392524,-82.966795,WARREN & DICKERSON,0
1318,42.392944,-82.966366,WARREN & LENOX,0
1319,42.393057,-82.964935,WARREN & DREXEL,0
1320,42.393424,-82.964738,WARREN & COPLIN,0
1321,42.393797,-82.963197,WARREN & LAKEVIEW,0
1322,42.384225,-83.071765,OAKLAND & HOLBROOK,0
1323,42.384574,-83.071667,OAKLAND & HOLBROOK,0
1324,42.419134,-83.038844,MC NICHOLS & MOUNT ELLIOTT,0
1325,42.4189,-83.038257,MC NICHOLS & MOUNT ELLIOTT,0
1326,42.419109,-83.047807,MC NICHOLS & BUFFALO,0
1327,42.418866,-83.046683,MC NICHOLS & CALDWELL,0
1328,42.419133,-83.045496,MC NICHOLS & SYRACUSE,0
1329,42.418869,-83.041657,MC NICHOLS & GABLE,0
1330,42.419138,-83.04239,MC NICHOLS & GABLE,0
1331,42.418866,-83.039358,MC NICHOLS & ST LOUIS,0
1332,42.419238,-83.036153,MC NICHOLS & R/R,0
1333,42.411413,-83.02332,VAN DYKE & WISNER,0
1334,42.411064,-83.023688,VAN DYKE & DUBAY,0
1335,42.413363,-83.023792,VAN DYKE & FORESTLAWN,0
1336,42.413416,-83.023425,VAN DYKE & FORESTLAWN,0
1337,42.419333,-83.033744,MC NICHOLS & SHERWOOD,0
1338,42.419063,-83.032607,MC NICHOLS & SHERWOOD,0
1339,42.419141,-83.030296,MC NICHOLS & HELEN,0
1340,42.419365,-83.030577,MC NICHOLS & CARRIE,0
1341,42.327496,-83.156366,Michigan & Wyoming,0
1342,42.329965,-83.156731,WYOMING & MC GRAW,0
1343,42.340541,-83.127202,LIVERNOIS & MC GRAW,0
1344,42.341078,-83.127189,LIVERNOIS & MC GRAW,0
1345,42.344837,-83.117889,WARREN & MC GRAW,0
1346,42.344569,-83.117462,WARREN & 31ST,0
1347,42.347864,-83.110202,GRAND BLVD & MC GRAW,0
1348,42.348338,-83.109969,GRAND BLVD. & MCGRAW,0
1349,42.353779,-83.101129,GRAND RIVER & MC GRAW,0
1350,42.35325,-83.100446,GRAND RIVER & MC GRAW,0
1351,42.359671,-83.099081,LINWOOD & FERRY PARK WEST,0
1352,42.360304,-83.096074,FERRY PARK & 16TH,0
1353,42.361187,-83.093934,14TH & FERRY PARK,0
1354,42.361375,-83.093543,FERRY PARK & 14TH,0
1355,42.361411,-83.094227,FERRY PARK & 14TH,0
1356,42.362785,-83.090156,ROSA PARKS BLVD & FERRY PARK,0
1357,42.363562,-83.088139,FERRY PARK & AVERY,0
1358,42.363436,-83.087418,HOLDEN & FERRY PARK,0
1359,42.363452,-83.085243,HOLDEN & TRUMBULL,0
1360,42.367017,-83.081682,GRAND BLVD W. & LODGE,0
1361,42.368017,-83.079749,GRAND BLVD & 3RD,0
1362,42.368061,-83.079065,GRAND BLVD & 3RD,0
1363,42.369526,-83.076472,2ND & GRAND BOULEVARD,0
1364,42.370761,-83.077289,2ND & LOTHROP,0
1365,42.371539,-83.077837,2ND & BETHUNE,0
1366,42.369434,-83.074529,CASS & GRAND BOULEVARD,0
1367,42.369399,-83.074896,CASS & GRAND BOULEVARD,0
1368,42.374774,-83.056799,MILWAUKEE & RIOPELLE,0
1369,42.375152,-83.051348,GRAND BLVD & TROMBLEY,0
1370,42.374822,-83.051496,GRAND BLVD & TROMBLY,0
1371,42.374623,-83.057704,MILWAUKEE & RIOPELLE,0
1372,42.376665,-83.052384,GRAND BLVD &  MILWAUKEE,0
1373,42.376164,-83.05236,GRAND BLVD & MILWAUKEE,0
1374,42.349248,-83.007363,LAFAYETTE & CONCORD,1
1375,42.349373,-83.007008,CONCORD & LAFAYETTE,1
1376,42.349167,-83.006813,LAFAYETTE & CONCORD,1
1377,42.349676,-83.006299,LAYFAYETTE & CANTON,1
1378,42.351012,-83.002434,LAFAYETTE & FIELD,0
1379,42.351583,-83.00159,LAFAYETTE & SHERIDAN,0
1380,42.376927,-83.031852,MOUNT ELLIOTT & GRAND BLVD,0
1381,42.344562,-83.121102,WARREN & JUNCTION,0
1382,42.3445,-83.121151,Junction & Warren,0
1383,42.344401,-83.121469,Junction & Warren,0
1384,42.344759,-83.121358,WARREN & NORTHFIELD,0
1385,42.344567,-83.114652,WARREN & 28TH,0
1386,42.344781,-83.113992,WARREN & 28TH,0
1387,42.361333,-83.09716,W GRAND BLVD & 16TH,0
1388,42.361441,-83.09749,GRAND BLVD & LASALLE,0
1389,42.364064,-83.089776,W GRAND BLVD & HOLDEN,0
1390,42.364252,-83.090044,GRAND BLVD & CHURCHILL,0
1391,42.364564,-83.089054,GRAND BLVD & WOODROW WILSON,0
1392,42.364965,-83.087208,W GRAND BLVD & KIPLING,0
1393,42.365412,-83.086975,GRAND BLVD & POE,0
1394,42.366063,-83.084469,W GRAND BLVD & TRUMBULL,0
1395,42.375897,-83.031145,MOUNT ELLIOTT & PALMER,0
1396,42.375522,-83.031281,MOUNT ELLIOTT & PALMER,0
1397,42.37161,-83.028589,MOUNT ELLIOTT & FARNSWORTH,0
1398,42.372039,-83.028576,MOUNT ELLIOTT & FARNSWORTH,0
1399,42.373552,-83.029648,MOUNT ELLIOTT & KIRBY,0
1400,42.373293,-83.029856,MOUNT ELLIOTT & KIRBY,0
1401,42.377652,-83.032644,MOUNT ELLIOTT & MEDBURY,0
1402,42.371389,-83.017677,FOREST & E GRAND BOULEVARD,0
1403,42.372263,-83.015353,FOREST & SHERIDAN,0
1404,42.414673,-83.257586,MC NICHOLS & LAHSER,0
1405,42.418917,-83.044518,MC NICHOLS & SYRACUSE,0
1406,42.416686,-83.163785,MC NICHOLS & GRIGGS,0
1407,42.402568,-82.999184,GRATIOT & GETHSEMANE CEMETARY,0
1408,42.417802,-83.104623,MC NICHOLS & WOODWARD (NEAR SIDE),0
1409,42.419598,-82.987885,GRATIOT & GOULBURN,0
1410,42.388847,-83.188697,GRAND RIVER & HUBBELL,0
1411,42.363646,-82.978267,JEFFERSON & ST. CLAIR,0
1412,42.414737,-83.253404,GRAND RIVER & MC NICHOLS,0
1413,42.308474,-83.104855,LIVERNOIS & LAYFAYETTE,0
1414,42.306864,-83.103721,FORT & LIVERNOIS,0
1415,42.306622,-83.103575,LIVERNOIS & FORT,0
1416,42.306756,-83.103245,FORT & LIVERNOIS,0
1417,42.307542,-83.102158,DRAGOON & FORT,0
1418,42.307292,-83.101877,FORT & DRAGOON,0
1419,42.307364,-83.102439,FORT & DRAGOON,0
1420,42.308059,-83.099569,FORT & CAVALRY,0
1421,42.308194,-83.099996,FORT & CAVALRY,0
1422,42.309836,-83.095708,FORT & JUNCTION,0
1423,42.309953,-83.096221,FORT & JUNCTION,0
1424,42.310372,-83.094865,FORT & MORRELL,0
1425,42.310791,-83.093448,FORT & FERDINAND,0
1426,42.313317,-83.087949,FORT & SCOTTEN,1
1427,42.341095,-83.015899,JEFFERSON & WALKER,1
1428,42.314139,-83.086544,FORT & HUBBARD,1
1429,42.314361,-83.085262,FORT & SWAIN,1
1430,42.315182,-83.08316,Fort & Grand Blvd,1
1431,42.315236,-83.083685,FORT & GRAND BLVD,1
1432,42.315826,-83.082634,FORT & 25TH,1
1433,42.316307,-83.080679,FORT & 24TH,1
1434,42.316754,-83.080337,FORT & 23RD,1
1435,42.317797,-83.077258,FORT & 21ST,1
1436,42.318717,-83.075168,FORT & ST ANNE,1
1437,42.318673,-83.076035,FORT & ST ANNE,1
1438,42.352696,-82.99863,LAFAYETTE & BALDWIN,0
1439,42.321512,-83.070926,14TH & LAFAYETTE,1
1440,42.323252,-83.067601,LAFAYETTE & ROSA PARKS,1
1441,42.323118,-83.067369,LAFAYETTE & ROSA PARKS,1
1442,42.325001,-83.063324,LAFAYETTE & 10TH,1
1443,42.325028,-83.063861,LAFAYETTE & 10TH,1
1444,42.325894,-83.062369,TRUMBULL & LAFAYETTE,1
1445,42.326152,-83.060855,LAFAYETTE & 8TH,1
1446,42.327348,-83.058837,LAFAYETTE & 6TH,1
1447,42.327285,-83.058324,LAFAYETTE & 6TH,1
1448,42.327928,-83.05759,LAFAYETTE & FIFTH,1
1449,42.328177,-83.056173,LAFAYETTE & JOHN C LODGE FWY,1
1450,42.328828,-83.054633,LAFAYETTE & 3RD,1
1451,42.328793,-83.055244,LAFAYETTE & 3RD,1
1452,42.31793,-83.085647,GRAND BLVD & HOWARD,1
1453,42.426799,-82.982654,SEYMOUR & GRATIOT,0
1454,42.375995,-83.016993,GRATIOT & TOWNSEND,0
1455,42.289069,-83.120052,JEFFERSON @ 8631,0
1456,42.287496,-83.121299,JEFFERSON @ 9300,0
1457,42.290847,-83.116803,JEFFERSON & DEARBORN,0
1458,42.290919,-83.117279,JEFFERSON & DEARBORN,0
1459,42.293154,-83.116691,THADDEUS & SLOAN,0
1460,42.293681,-83.115555,THADDEUS & WEST END,0
1461,42.292544,-83.113725,JEFFERSON & WEST END,0
1462,42.293302,-83.1111,JEFFERSON & ANDERSON,0
1463,42.295383,-83.10674,JEFFERSON & HARRINGTON,0
1464,42.295553,-83.10702,JEFFERSON & HARRINGTON,0
1465,42.296705,-83.104333,JEFFERSON & SCHROEDER,0
1466,42.296669,-83.103759,JEFFERSON & SCHROEDER,0
1467,42.297758,-83.101475,JEFFERSON & RADEMACHER,0
1468,42.297803,-83.102024,JEFFERSON & RADEMACHER,0
1469,42.300028,-83.099189,JEFFERSON & LIVERNOIS,0
1470,42.302032,-83.100297,LIVERNOIS & SOUTH STREET,0
1471,42.326548,-83.116677,LIVERNOIS & OTIS,0
1472,42.326109,-83.116726,LIVERNOIS & OTIS,0
1473,42.33621,-83.123652,LIVERNOIS & HORATIO,0
1474,42.33579,-83.123738,LIVERNOIS & HORATIO,0
1475,42.334207,-83.12264,LIVERNOIS & PERKINS,0
1476,42.313309,-83.088523,FORT& SCOTTEN,0
1477,42.333124,-83.121334,LIVERNOIS & BUCHANAN,0
1478,42.33273,-83.121359,LIVERNOIS & BUCHANAN,0
1479,42.329169,-83.118444,LIVERNOIS & CLAYTON,0
1480,42.328767,-83.118555,LIVERNOIS & CLAYTON,0
1481,42.313646,-83.108694,LIVERNOIS & CADET,0
1482,42.318549,-83.110971,LIVERNOIS & TOLEDO,0
1483,42.318093,-83.111008,LIVERNOIS & TOLEDO,0
1484,42.310255,-83.106378,LIVERNOIS & ARMY,0
1485,42.309556,-83.103754,DRAGOON & LAFAYETTE,0
1486,42.311256,-83.104729,DRAGOON & ARMY,0
1487,42.303535,-83.101223,330 LIVERNOIS,0
1488,42.312018,-83.107573,LIVERNOIS & REGULAR,0
1489,42.312974,-83.106118,DRAGOON & REGULAR,0
1490,42.314629,-83.107362,DRAGOON & CADET,0
1491,42.321582,-83.113239,LIVERNOIS & FEDERAL,0
1492,42.321519,-83.113593,LIVERNOIS & FEDERAL,0
1493,42.320043,-83.112203,LIVERNOIS & PLUMER,0
1494,42.319685,-83.112313,LIVERNOIS & PLUMER,0
1495,42.32466,-83.115287,LIVERNOIS & JOHN KRONK,0
1496,42.323801,-83.11519,LIVERNOIS & JOHN KRONK,0
1497,42.347609,-83.132741,LIVERNOIS & SPARTA,0
1498,42.34786,-83.132508,LIVERNOIS & SPARTA,0
1499,42.350526,-83.134778,LIVERNOIS & BARTON,0
1500,42.348978,-83.133717,LIVERNOIS & CLIFTON,0
1501,42.349372,-83.133619,LIVERNOIS & CLIFTON,0
1502,42.354453,-83.137145,LIVERNOIS & GARDEN,0
1503,42.354185,-83.137353,LIVERNOIS & GARDEN,0
1504,42.356305,-83.138463,LIVERNOIS & LINSDALE,0
1505,42.356582,-83.138108,LIVERNOIS & LINSDALE,0
1506,42.359185,-83.138485,LIVERNOIS & JOY RD,0
1507,42.359838,-83.138435,LIVERNOIS & JOY RD,0
1508,42.357772,-83.138449,LIVERNOIS & VAN BUREN,0
1509,42.358031,-83.138119,LIVERNOIS & VAN BUREN,0
1510,42.362771,-83.138543,LIVERNOIS & RIDGEWOOD,0
1511,42.363934,-83.138969,LIVERNOIS & WESTFIELD,0
1512,42.364372,-83.138639,LIVERNOIS & NORTHFIELD,0
1513,42.366474,-83.138992,LIVERNOIS & CHICAGO,0
1514,42.366912,-83.138625,LIVERNOIS & JEFFERIES FWY,0
1515,42.368889,-83.139185,GRAND RIVER & LIVERNOIS,0
1516,42.369855,-83.13927,LIVERNOIS & BARR,0
1517,42.371411,-83.138926,LIVERNOIS & COLLINGWOOD,0
1518,42.372225,-83.139292,LIVERNOIS & STEARNS,0
1519,42.374175,-83.139291,LIVERNOIS & WEBB,0
1520,42.374407,-83.138924,LIVERNOIS & WEBB,0
1521,42.375892,-83.139216,LIVERNOIS & ELMHURST,0
1522,42.376429,-83.138959,LIVERNOIS & ELMHURST,0
1523,42.37625,-83.139423,ELMHURST & LIVERNOIS,0
1524,42.375955,-83.139216,ELMHURST & LIVERNOIS,0
1525,42.378647,-83.139482,LIVERNOIS & CORTLAND,0
1526,42.379461,-83.139225,LIVERNOIS & CORTLAND,0
1527,42.381017,-83.139322,LIVERNOIS & FULLERTON,0
1528,42.38049,-83.13964,LIVERNOIS & FULLERTON,0
1529,42.383012,-83.139418,LIVERNOIS & GLENDALE,0
1530,42.383745,-83.13971,LIVERNOIS & BUENA VISTA,0
1531,42.386151,-83.139647,LIVERNOIS & DAVISON - NEAR,0
1532,42.386339,-83.13994,LIVERNOIS & DAVISON,0
1533,42.386813,-83.139622,LIVERNOIS & DAVISON - FAR,0
1534,42.388012,-83.139988,LIVERNOIS & GRAND,0
1535,42.389434,-83.13962,LIVERNOIS & PASADENA,0
1536,42.389702,-83.139913,LIVERNOIS & OAKMAN,0
1537,42.393351,-83.139874,LIVERNOIS & DORIS,0
1538,42.393494,-83.14024,LIVERNOIS & INTERVALE,0
1539,42.395131,-83.140227,LIVERNOIS & LYNDON,0
1540,42.395623,-83.139933,LIVERNOIS & LYNDON,0
1541,42.397904,-83.140188,LIVERNOIS & EATON,0
1542,42.398968,-83.13982,LIVERNOIS & BOURKE,0
1543,42.400283,-83.140186,LIVERNOIS & CHALFONTE,0
1544,42.400614,-83.139819,LIVERNOIS & CHALFONTE,0
1545,42.342152,-83.128397,LIVERNOIS & WAGNER,0
1546,42.342581,-83.128336,LIVERNOIS & WAGNER,0
1547,42.338769,-83.125518,LIVERNOIS & HANSON,0
1548,42.339235,-83.126189,LIVERNOIS & DEVEREAUX,0
1549,42.345918,-83.131472,LIVERNOIS & BEECHTON,0
1550,42.346374,-83.131422,LIVERNOIS & BEECHTON,0
1551,42.402734,-83.140367,FENKELL & LIVERNOIS,0
1552,42.402331,-83.140233,LIVERNOIS & FENKELL,0
1553,42.402465,-83.139817,FENKELL & LIVERNOIS,0
1554,42.402868,-83.139927,LIVERNOIS & FENKELL,0
1555,42.404236,-83.140292,LIVERNOIS & JOHN C LODGE FWY,0
1556,42.406392,-83.140364,LIVERNOIS & MIDLAND,0
1557,42.406445,-83.140083,LIVERNOIS & MIDLAND,0
1558,42.412098,-83.140689,LIVERNOIS & FLORENCE,0
1559,42.412528,-83.140322,LIVERNOIS & FLORENCE,0
1560,42.41446,-83.140688,LIVERNOIS & GROVE,0
1561,42.414737,-83.140345,LIVERNOIS & GROVE,0
1562,42.419012,-83.140733,LIVERNOIS & SANTA MARIA,0
1563,42.41861,-83.141063,LIVERNOIS & SANTA MARIA,0
1564,42.42107,-83.140829,LIVERNOIS & SANTA CLARA,0
1565,42.420399,-83.14116,LIVERNOIS & SANTA CLARA,0
1566,42.422304,-83.141256,LIVERNOIS & THATCHER,0
1567,42.422689,-83.140925,LIVERNOIS & THATCHER,0
1568,42.425855,-83.141302,LIVERNOIS & PICKFORD,0
1569,42.426445,-83.141032,LIVERNOIS & PICKFORD,0
1570,42.428091,-83.141129,LIVERNOIS & MARGARETA,0
1571,42.42776,-83.141459,LIVERNOIS & MARGARETA,0
1572,42.429156,-83.141471,LIVERNOIS & CLARITA,0
1573,42.42954,-83.141128,LIVERNOIS & CLARITA,0
1574,42.43319,-83.141749,LIVERNOIS & CAMBRIDGE,0
1575,42.43531,-83.141527,LIVERNOIS & CHESTERFIELD,0
1576,42.435086,-83.141869,LIVERNOIS & OUTER DRIVE,0
1577,42.436714,-83.141893,LIVERNOIS & ST MARTINS,0
1578,42.43709,-83.141538,LIVERNOIS & ST MARTINS,0
1579,42.438601,-83.141879,LIVERNOIS & PEMBROKE,0
1580,42.439335,-83.141572,LIVERNOIS & PEMBROKE,0
1581,42.441025,-83.142048,LIVERNOIS & CHIPPEWA,0
1582,42.441464,-83.14173,LIVERNOIS & CHIPPEWA,0
1583,42.44344,-83.142107,LIVERNOIS & NORFORK,0
1584,42.443941,-83.141838,LIVERNOIS & NORFOLK,0
1585,42.302854,-83.098917,DRAGOON & SOUTH,0
1586,42.344867,-83.139767,WARREN & WETHERBY,0
1587,42.344729,-83.151946,WARREN & WATER PLANT,0
1588,42.344749,-83.136115,WARREN & DANIELS,0
1589,42.344981,-83.135797,WARREN & WALTON,0
1590,42.344569,-83.133562,WARREN & CICOTTE,0
1591,42.359332,-83.147599,JOY RD & ALPINE,0
1592,42.359117,-83.14628,JOY RD & CENTRAL,0
1593,42.359438,-83.145155,JOY RD & BRYDEN,0
1594,42.3595,-83.142981,JOY RD & PRAIRIE,0
1595,42.359232,-83.14303,JOY RD & PRAIRIE,0
1596,42.359267,-83.141698,JOY RD & BURNETTE,0
1597,42.359535,-83.140806,JOY RD & MONICA,0
1598,42.381252,-83.145041,EWALD CIRCLE & FULLERTON,0
1599,42.380859,-83.145359,EWALD CIRCLE & FULLERTON,0
1600,42.386643,-83.138779,DAVISON & BROAD STREET,0
1601,42.388018,-83.135319,DAVISON & PETOSKEY,0
1602,42.388108,-83.135856,DAVISON & PETOSKEY,0
1603,42.39859,-83.135444,DEXTER & BOURKE,0
1604,42.398921,-83.135138,DEXTER & BOURKE,0
1605,42.416869,-83.148768,MC NICHOLS & TURNER,0
1606,42.424231,-83.150488,CURTIS & WOODINGHAM,0
1607,42.424069,-83.148812,CURTIS & SANTA BARBARA,0
1608,42.417164,-83.147961,MC NICHOLS & PENNINGTON,0
1609,42.416966,-83.146041,MC NICHOLS & SAN JUAN,0
1610,42.417234,-83.144818,MC NICHOLS & MONICA,0
1611,42.416965,-83.142691,MC NICHOLS & SANTA ROSA,0
1612,42.416965,-83.141639,MC NICHOLS & STOEPEL,0
1613,42.404315,-83.13539,DEXTER & LODGE FREEWAY,0
1614,42.404207,-83.135683,DEXTER & LODGE FREEWAY,0
1615,42.424337,-83.147993,CURTIS & PENNINGTON,0
1616,42.424068,-83.146318,CURTIS & SAN JUAN,0
1617,42.424336,-83.145669,CURTIS & PRAIRIE,0
1618,42.424068,-83.144667,CURTIS & MONICA,0
1619,42.424416,-83.14348,CURTIS & SANTA ROSA,0
1620,42.424129,-83.141352,LIVERNOIS & CURTIS,0
1621,42.424433,-83.141756,CURTIS & LIVERNOIS,0
1622,42.42454,-83.141022,LIVERNOIS & CURTIS,0
1623,42.424218,-83.141389,CURTIS & LIVERNOIS,0
1624,42.404721,-83.218026,SOUTHFIELD & MIDLAND,0
1625,42.404426,-83.219444,SOUTHFIELD & MIDLAND,0
1626,42.406546,-83.218112,SOUTHFIELD & PILGRIM,0
1627,42.406224,-83.219554,SOUTHFIELD & PILGRIM,0
1628,42.408397,-83.218124,SOUTHFIELD & PURITAN,0
1629,42.408075,-83.217819,PURITAN & SOUTHFIELD,0
1630,42.408075,-83.219653,SOUTHFIELD & PURITAN,0
1631,42.408406,-83.216951,PURITAN & ARCHDALE,0
1632,42.408192,-83.216449,PURITAN & ARCHDALE,0
1633,42.408434,-83.214444,PURITAN & OAKFIELD,0
1634,42.408165,-83.214787,PURITAN & OAKFIELD,0
1635,42.408201,-83.212732,PURITAN & LINDSAY,0
1636,42.408505,-83.212243,PURITAN & GILCHRIST,0
1637,42.408264,-83.210629,PURITAN & BILTMORE,0
1638,42.408533,-83.210116,PURITAN & FERGUSON,0
1639,42.4083,-83.208673,PURITAN & ASBURY PARK,0
1640,42.408595,-83.208172,PURITAN & MURRAY HILL,0
1641,42.408363,-83.206448,PURITAN & ST MARYS,0
1642,42.408631,-83.205788,PURITAN & MANSFIELD,0
1643,42.408363,-83.204345,PURITAN & RUTHERFORD,0
1644,42.408631,-83.203232,PURITAN & PREVOST,0
1645,42.408363,-83.201704,PURITAN & FORRER,0
1646,42.408631,-83.200946,PURITAN & WINTHROP,0
1647,42.408632,-83.199185,PURITAN & GREENFIELD,0
1648,42.408193,-83.199173,GREENFIELD & PURITAN,0
1649,42.408819,-83.19888,GREENFIELD & PURITAN,0
1650,42.408363,-83.198757,PURITAN & GREENFIELD,0
1651,42.408712,-83.197009,PURITAN & WHITCOMB,0
1652,42.408497,-83.195187,PURITAN & SUSSEX,0
1653,42.408819,-83.194405,PURITAN & COYLE,0
1654,42.408569,-83.192803,PURITAN & ROBSON,0
1655,42.408837,-83.19213,PURITAN & LAUDER,0
1656,42.408569,-83.188927,PURITAN & HUBBELL,0
1657,42.408837,-83.187179,PURITAN & MARK TWAIN,0
1658,42.409033,-83.18499,PURITAN & ARDMORE,0
1659,42.408863,-83.183523,PURITAN & CRUSE,0
1660,42.409078,-83.18296,PURITAN & STANSBURY,0
1661,42.408863,-83.181322,PURITAN & LESURE,0
1662,42.409238,-83.177434,PURITAN & SNOWDEN,0
1663,42.40897,-83.175991,PURITAN & LITTLEFIELD,0
1664,42.409238,-83.175441,PURITAN & CHEYENNE,0
1665,42.408969,-83.173912,PURITAN & WARD,0
1666,42.409237,-83.173093,PURITAN & SORRENTO,0
1667,42.408969,-83.171553,PURITAN & STEEL,0
1668,42.40938,-83.169926,PURITAN & MEYERS,0
1669,42.40912,-83.169401,PURITAN & MEYERS,0
1670,42.409379,-83.167884,PURITAN & MONTE VISTA,0
1671,42.409165,-83.167359,PURITAN & MONTE VISTA,0
1672,42.409352,-83.165659,PURITAN & JAMES COUZENS,0
1673,42.409271,-83.1644,PURITAN & JAMES COUZENS,0
1674,42.409539,-83.163458,PURITAN & GRIGGS,0
1675,42.409306,-83.161808,PURITAN & ILENE,0
1676,42.409619,-83.159839,WYOMING & PURITAN,0
1677,42.409297,-83.160157,WYOMING & PURITAN,0
1678,42.409636,-83.157993,PURITAN & INDIANA,0
1679,42.40952,-83.15655,PURITAN & WISCONSIN,0
1680,42.409734,-83.155804,PURITAN & OHIO,0
1681,42.409501,-83.154361,PURITAN & CHERRYLAWN,0
1682,42.409832,-83.153505,PURITAN & NORTHLAWN,0
1683,42.409599,-83.152601,PURITAN & CLOVERLAWN,0
1684,42.409831,-83.151035,PURITAN & GREENLAWN,0
1685,42.409571,-83.150314,PURITAN & GREENLAWN,0
1686,42.409839,-83.148932,PURITAN & TURNER,0
1687,42.409606,-83.148431,PURITAN & TURNER,0
1688,42.409901,-83.146927,PURITAN & LILAC,0
1689,42.409668,-83.145851,PURITAN & SAN JUAN,0
1690,42.409936,-83.144995,PURITAN & PRAIRIE,0
1691,42.409667,-83.143369,PURITAN & MONICA,0
1692,42.409935,-83.142868,PURITAN & SANTA ROSA,0
1693,42.409666,-83.141315,PURITAN & STOEPEL,0
1694,42.409916,-83.140324,LIVERNOIS & PURITAN,0
1695,42.409522,-83.140655,LIVERNOIS & PURITAN,0
1696,42.409934,-83.139738,PURITAN & PETOSKEY,0
1697,42.409932,-83.137439,PURITAN & HOLMUR,0
1698,42.409664,-83.136938,PURITAN & HOLMUR,0
1699,42.409932,-83.136742,PURITAN & DEXTER,0
1700,42.409664,-83.136742,PURITAN & DEXTER,0
1701,42.410074,-83.134651,FAIRFIELD & PURITAN,0
1702,42.409672,-83.134602,PURITAN & FAIRFIELD,0
1703,42.409913,-83.135055,PURITAN & FAIRFIELD,0
1704,42.409868,-83.133367,PURITAN & MUIRLAND,0
1705,42.410127,-83.133661,PURITAN & MUIRLAND,0
1706,42.410136,-83.132658,PURITAN & WILDEMERE,0
1707,42.409867,-83.131264,PURITAN & PARKSIDE,0
1708,42.409902,-83.129736,PURITAN & LAWTON,0
1709,42.410206,-83.130102,PURITAN & LAWTON,0
1710,42.409919,-83.127755,LINWOOD & PURITAN,0
1711,42.409963,-83.127339,PURITAN & LINWOOD,0
1712,42.410232,-83.127938,PURITAN & LINWOOD,0
1713,42.410231,-83.126569,PURITAN & NORMANDY,0
1714,42.410069,-83.125004,PURITAN & LASALLE,0
1715,42.410337,-83.124062,PURITAN & BAYLIS,0
1716,42.410104,-83.122412,PURITAN & INVERNESS,0
1717,42.410514,-83.121323,PURITAN & LOG CABIN,0
1718,42.410201,-83.12015,PURITAN & 14TH,0
1719,42.410531,-83.118584,PURITAN & 12TH (ROSA PARKS),0
1720,42.410271,-83.118132,PURITAN & 12TH (ROSA PARKS),0
1721,42.410189,-83.115992,PURITAN & JOSLYN,0
1722,42.40905,-83.110406,HAMILTON & MIDLAND,0
1723,42.408441,-83.110395,HAMILTON & MIDLAND,0
1724,42.407609,-83.109405,HAMILTON & PITKIN,0
1725,42.410538,-83.115588,PURITAN & MOSS,0
1726,42.357368,-83.072828,3RD & KIRBY,1
1727,42.405877,-83.101595,MANCHESTER & 2ND,0
1728,42.410151,-83.100171,WOODWARD & SEARS,0
1729,42.409722,-83.100281,WOODWARD & SEARS,0
1730,42.415464,-83.208907,MC NICHOLS & ASBURY PARK,0
1731,42.416321,-83.17144,MC NICHOLS & LODGE FREEWAY,0
1732,42.416491,-83.172883,MC NICHOLS & JAMES COUZENS,0
1733,42.416365,-83.170009,MC NICHOLS & MEYERS,0
1734,42.41658,-83.17062,MC NICHOLS & MEYERS,0
1735,42.416401,-83.167759,MC NICHOLS & MONTE VISTA,0
1736,42.41666,-83.167135,MC NICHOLS & PINEHURST,0
1737,42.406461,-83.13529,BELDEN & MIDLAND,0
1738,42.409708,-83.135764,BELDEN & PURITAN,0
1739,42.413756,-83.113702,HAMILTON & FLORENCE,0
1740,42.41339,-83.113861,HAMILTON & FLORENCE,0
1741,42.412048,-83.112921,HAMILTON & EASON,0
1742,42.412718,-83.113006,HAMILTON & EASON,0
1743,42.410338,-83.111554,HAMILTON & PURITAN,0
1744,42.410714,-83.111566,HAMILTON & PURITAN,0
1745,42.33001,-83.235346,EVERGREEN & FORD ROAD,0
1746,42.332246,-83.234956,EVERGREEN & KIRKWOOD,0
1747,42.335779,-83.235166,EVERGREEN & PAUL,0
1748,42.335394,-83.235385,EVERGREEN & PAUL,0
1749,42.335484,-83.235031,PAUL & EVERGREEN,0
1750,42.335931,-83.233151,PAUL & AUBURN,0
1751,42.33569,-83.231489,PAUL & MINOCK,0
1752,42.336022,-83.23061,PAUL & WESTWOOD,0
1753,42.335772,-83.229083,PAUL & GRANDVILLE,0
1754,42.336022,-83.228351,PAUL & PIEDMONT,0
1755,42.335763,-83.226909,PAUL & WARWICK,0
1756,42.336032,-83.225957,PAUL & ARTESIAN,0
1757,42.335764,-83.224271,PAUL & STAHELIN,0
1758,42.336032,-83.223379,PAUL & BRACE,0
1759,42.335871,-83.222072,PAUL & GREENVIEW,0
1760,42.336122,-83.220949,PAUL & FAUST,0
1761,42.335863,-83.219508,PAUL & PENROD,0
1762,42.336131,-83.218543,PAUL & ROSEMONT,0
1763,42.335935,-83.217016,PAUL & ASHTON,0
1764,42.336185,-83.21588,SOUTHFIELD & PAUL,0
1765,42.33615,-83.216723,PAUL & SOUTHFIELD,0
1766,42.348134,-83.216018,SOUTHFIELD & DIVERSEY,0
1767,42.361451,-83.216107,SOUTHFIELD & CATHEDRAL,0
1768,42.361263,-83.217145,SOUTHFIELD & CATHEDRAL,0
1769,42.364366,-83.217769,FITZPATRICK & ASHTON,0
1770,42.363535,-83.217207,SOUTHFIELD & FITZPATRICK,0
1771,42.350647,-83.212744,TIREMAN & RUTLAND,0
1772,42.350477,-83.21294,TIREMAN & RUTLAND,0
1773,42.358017,-83.214493,JOY RD & LONGACRE,0
1774,42.357937,-83.210461,JOY RD & ABINGTON ROAD,0
1775,42.37678,-83.216514,SOUTHFIELD & CAPITOL,0
1776,42.384427,-83.216907,SOUTHFIELD & DAVISON,0
1777,42.393863,-83.217411,SOUTHFIELD & LYNDON,0
1778,42.393648,-83.218475,SOUTHFIELD & LYNDON,0
1779,42.418826,-83.219681,SOUTHFIELD & OUTER DRIVE,0
1780,42.419175,-83.218421,SOUTHFIELD & OUTER DRIVE (FAR),0
1781,42.422484,-83.219755,SOUTHFIELD & CURTIS,0
1782,42.42278,-83.21852,SOUTHFIELD & CURTIS,0
1783,42.418898,-83.214508,OUTER DRIVE & OAKFIELD,0
1784,42.419122,-83.214838,OUTER DR & OAKFIELD,0
1785,42.429622,-83.220051,SOUTHFIELD & 7 MILE,0
1786,42.437162,-83.219222,SOUTHFIELD & PEMBROKE,0
1787,42.436974,-83.220249,SOUTHFIELD & PEMBROKE,0
1788,42.444354,-83.216471,17390 8 MILE,0
1789,42.444381,-83.214893,EIGHT MILE & RUTLAND,0
1790,42.446073,-83.20578,NORTHWESTERN HIGHWAY & NORTHLAND DR,0
1791,42.446341,-83.204862,NORTHLAND DR. & NORTHWESTERN HWY,0
1792,42.446332,-83.204887,NORTHWESTERN HIGHWAY & NORTHLAND DR,0
1793,42.343106,-83.225679,WARREN & ARTESIAN,0
1794,42.343338,-83.226216,WARREN & ARTESIAN,0
1795,42.343071,-83.223126,WARREN & BRACE,0
1796,42.343339,-83.222527,WARREN & GREENVIEW,0
1797,42.343116,-83.220744,WARREN & FAUST,0
1798,42.343411,-83.220194,WARREN & PENROD,0
1799,42.34317,-83.218362,WARREN & ROSEMONT,0
1800,42.343125,-83.21725,WARREN & ASHTON,0
1801,42.343224,-83.2162,WARREN & SOUTHFIELD,0
1802,42.343358,-83.217079,WARREN & SOUTHFIELD,0
1803,42.357737,-83.226711,JOY RD & ARTESIAN,0
1804,42.35755,-83.224964,JOY RD & STAHELIN,0
1805,42.357747,-83.224218,JOY RD & BRACE,0
1806,42.357568,-83.22263,JOY RD & GREENVIEW,0
1807,42.364767,-83.226457,CHICAGO & ARTESIAN,0
1808,42.365036,-83.225577,CHICAGO & STAHELIN,0
1809,42.364821,-83.224087,CHICAGO & BRACE,0
1810,42.357837,-83.221873,JOY RD & FAUST,0
1811,42.357721,-83.217621,JOY RD & SOUTHFIELD NEAR,0
1812,42.364715,-83.218857,FITZPATRICK & CHICAGO,0
1813,42.364822,-83.218551,CHICAGO & FITZPATRICK,0
1814,42.364983,-83.217366,SOUTHFIELD & CHICAGO,0
1815,42.365019,-83.21612,SOUTHFIELD & CHICAGO,0
1816,42.365163,-83.215863,CHICAGO & ARCHDALE,0
1817,42.364966,-83.214189,CHICAGO & LONGACRE,0
1818,42.34351,-83.214233,WARREN & LONGACRE,0
1819,42.343269,-83.212547,WARREN & RUTLAND,0
1820,42.343537,-83.211912,WARREN & CLAYBURN,0
1821,42.343314,-83.208541,WARREN & GRANDMONT,0
1822,42.343591,-83.209151,WARREN & GRANDMONT,0
1823,42.365234,-83.213493,CHICAGO & RUTLAND,0
1824,42.364975,-83.211782,CHICAGO & MEMORIAL,0
1825,42.365226,-83.210853,CHICAGO & ABINGTON,0
1826,42.364993,-83.20935,CHICAGO & GRANDMONT,0
1827,42.365315,-83.208483,CHICAGO & WOODMONT,0
1828,42.415077,-83.229083,MC NICHOLS & SUNDERLAND,0
1829,42.415283,-83.227028,MC NICHOLS & STAHELIN,0
1830,42.415113,-83.224057,MC NICHOLS & GREENVIEW,0
1831,42.415382,-83.223984,MC NICHOLS & GLASTONBURY,0
1832,42.415275,-83.221232,MC NICHOLS & ROSEMONT,0
1833,42.418511,-83.084629,MC NICHOLS & ORLEANS,0
1834,42.415571,-83.21683,MC NICHOLS & ARCHDALE,0
1835,42.415365,-83.2154,MC NICHOLS & HARLOW,0
1836,42.415661,-83.213663,MC NICHOLS & LINDSAY,0
1837,42.415464,-83.212,MC NICHOLS & GILCHRIST,0
1838,42.415679,-83.210386,MC NICHOLS & FERGUSON,0
1839,42.41931,-83.213664,OUTER DR & LINDSAY,0
1840,42.419042,-83.213395,OUTER DR & LINDSAY,0
1841,42.41931,-83.211549,OUTER DR & BILTMORE,0
1842,42.419096,-83.211206,OUTER DR & BILTMORE,0
1843,42.419337,-83.209519,OUTER DR & ASBURY PK,0
1844,42.419069,-83.209237,OUTER DR & ASBURY PK,0
1845,42.454669,-83.207041,J L HUDSON DRIVE & PROVIDENCE DRIVE,0
1846,42.454677,-83.211238,NORTH PARK DRIVE & MID BLOCK,0
1847,42.455733,-83.207298,NORTH PARK DRIVE & PROVIDENCE DRIVE,0
1848,42.456261,-83.201034,GREENFIELD & FOSTER WINTER DR,0
1849,42.458819,-83.201156,GREENFIELD & 9 MILE,0
1850,42.39502,-83.11623,14TH & DAVISON,0
1851,42.397284,-83.117707,14TH & PASADENA,0
1852,42.395754,-83.116792,14TH & CLEMENTS,0
1853,42.398599,-83.118524,14TH & LABELLE,0
1854,42.403017,-83.118177,FENKELL & ROSA PARKS BOULEVARD,0
1855,42.401272,-83.116406,OAKMAN & 12TH (ROSA PARKS),0
1856,42.401299,-83.117103,OAKMAN & ROSA PARKS BLVD,0
1857,42.380208,-83.101948,ROSA PARKS BLVD &  CHICAGO,0
1858,42.389112,-83.10806,ROSA PARKS BLVD & MONTEREY,0
1859,42.39372,-83.111452,ROSA PARKS BLVD & GLENDALE,0
1860,42.390516,-83.10906,ROSA PARKS BLVD & CORTLAND,0
1861,42.395196,-83.112379,ROSA PARKS BLVD & TYLER,0
1862,42.399384,-83.115223,ROSA PARKS BLVD & FORD,0
1863,42.394308,-83.108689,GLENDALE & WOODROW WILSON,0
1864,42.429588,-82.981495,GRATIOT & PARK GROVE,0
1865,42.429682,-83.231107,7 MILE & SHAFTSBURY,0
1866,42.37393,-83.152098,GRAND RIVER & NORTHLAWN,0
1867,42.417268,-83.122624,MC NICHOLS & INVERNESS,0
1868,42.417536,-83.121804,MC NICHOLS & LOG CABIN,0
1869,42.417624,-83.118808,MC NICHOLS & ROSA PARKS,0
1870,42.417364,-83.118613,MC NICHOLS & 12TH,0
1871,42.368879,-83.094302,ROSA PARKS BLVD & SEWARD,0
1872,42.367271,-83.075608,2ND & BALTIMORE,0
1873,42.360387,-83.068986,CASS & FERRY,1
1874,42.358078,-83.067573,CASS & MAIN LIBRARY,1
1875,42.356504,-83.06716,CASS & PUTNAM,1
1876,42.35943,-83.068694,CASS & KIRBY,1
1877,42.363647,-83.073403,2ND & YORK,0
1878,42.362752,-83.072904,2ND & ANTOINETTE,0
1879,42.363519,-83.070874,CASS & ANTOINETTE,0
1880,42.364021,-83.071508,CASS & YORK,0
1881,42.365687,-83.074646,2ND & AMSTERDAM,0
1882,42.368316,-83.074128,CASS & MILWAUKEE,0
1883,42.368056,-83.073444,CASS & BALTIMORE,0
1884,42.367654,-83.073567,CASS & BALTIMORE,0
1885,42.365309,-83.071909,CASS & BURROUGHS,0
1886,42.364898,-83.072057,CASS & BURROUGHS,0
1887,42.366248,-83.072396,CASS & AMSTERDAM,0
1888,42.365953,-83.072617,CASS & AMSTERDAM,0
1889,42.361693,-83.069692,CASS & PALMER,1
1890,42.361658,-83.070059,CASS & PALMER-NEAR,1
1891,42.358007,-83.067915,CASS & MAIN LIBRARY,1
1892,42.361166,-83.069791,CASS & PALMER-FAR,1
1893,42.370759,-83.095717,ROSA PARKS BLVD & EUCLID,0
1894,42.37228,-83.096582,ROSA PARKS BLVD & PINGREE,0
1895,42.370034,-83.08439,JOHN C LODGE FWY & PALLISTER,0
1896,42.372547,-83.084532,JOHN C LODGE FWY & SEWARD,0
1897,42.371734,-83.085389,JOHN C LODGE FWY & SEWARD,0
1898,42.372939,-83.082931,SEWARD & 3RD,0
1899,42.311747,-83.091969,FORT & MCKINSTRY,0
1900,42.350935,-83.053354,ST ANTOINE & CHILD HOSPITAL,1
1901,42.350854,-83.052902,BEAUBIEN & CHILD HOSPITAL,1
1902,42.352124,-83.052679,ST ANTOINE & DETROIT RECEIVING HOSP,1
1903,42.351936,-83.052362,ST. ANTOINE & DETROIT RECEIVING HOSP,1
1904,42.392326,-83.198219,GREENFIELD & GRAND RIVER NEAR,0
1905,42.357858,-83.062039,WARREN & JOHN R,1
1906,42.357912,-83.0626,WARREN & JOHN R,1
1907,42.414365,-83.265766,MCNICHOLS & BEAVERLAND,0
1908,42.419906,-82.931253,HARPER & HEREFORD,0
1909,42.344634,-83.139437,WARREN & WEATHERBY,0
1910,42.358857,-83.060045,WARREN & BRUSH,1
1911,42.35777,-83.055514,ST ANTOINE & HUTZEL HOSPITAL,1
1912,42.357466,-83.055698,ST ANTOINE & HUTZEL DWA (FOREST),1
1913,42.433288,-83.014581,E. Outer Dr. & 7 Mile,0
1914,42.358594,-83.056453,ST. ANTOINE & HANCOCK,1
1915,42.358898,-83.05627,ST ANTOINE & HANCOCK,1
1916,42.355569,-83.054407,ST ANTOINE & CANFIELD,1
1917,42.355846,-83.054211,ST ANTOINE & CANFIELD,1
1918,42.396261,-83.113246,DAVISON & 12TH,0
1919,42.396503,-83.11349,ROSA PARKS BLVD & DAVISON,0
1920,42.398104,-83.114161,ROSA PARKS BLVD & GRAND,0
1921,42.393041,-83.100121,HAMILTON & CORTLAND,0
1922,42.393694,-83.100169,HAMILTON & CORTLAND,0
1923,42.396513,-83.10206,HAMILTON & GLENDALE,0
1924,42.396361,-83.102415,HAMILTON & GLENDALE,0
1925,42.394714,-83.100865,HAMILTON & HIGHLAND,0
1926,42.397802,-83.103256,HAMILTON & BUENA VISTA,0
1927,42.417101,-83.127809,MC NICHOLS & LINWOOD,0
1928,42.41744,-83.125705,MC NICHOLS & LASALLE,0
1929,42.417439,-83.124201,MC NICHOLS & BAYLIS,0
1930,42.417206,-83.123908,MC NICHOLS & BAYLIS,0
1931,42.420128,-83.118353,PONTCHARTRAIN & WHITMORE,0
1932,42.420351,-83.118169,PONTCHARTRAIN & WHITMORE,0
1933,42.426696,-83.123372,PONTCHARTRAIN & GOLF CLUB,0
1934,42.422177,-83.119549,PONTCHARTRAIN & MID BLOCK,0
1935,42.418132,-83.11657,PONTCHARTRAIN & MERTON,0
1936,42.418347,-83.117047,PONTCHARTRAIN & MERTON,0
1937,42.415475,-83.115204,HAMILTON & GROVE,0
1938,42.415385,-83.114666,HAMILTON & GROVE,0
1939,42.417467,-83.111606,MC NICHOLS & 3RD,0
1940,42.417692,-83.113122,MC NICHOLS & 3RD,0
1941,42.366549,-83.078396,3RD & MILWAUKEE,0
1942,42.353624,-83.067667,2ND & FOREST,1
1943,42.355163,-83.068531,WARREN & 2ND,1
1944,42.35528,-83.069007,WARREN & 2ND,1
1945,42.3561,-83.066098,WARREN & CASS,1
1946,42.35619,-83.066623,CASS & WARREN,1
1947,42.356038,-83.067002,WARREN & CASS,1
1948,42.355779,-83.066746,CASS & WARREN,1
1949,42.428825,-83.271112,7 MILE & GLENHURST,0
1950,42.432865,-83.258506,LAHSER & VASSAR,0
1951,42.432418,-83.258848,LAHSER & VASSAR,0
1952,42.434681,-83.258545,LAHSER & ST MARTINS,0
1953,42.43418,-83.258875,LAHSER & ST MARTINS,0
1954,42.436568,-83.258718,LAHSER & PEMBROKE,0
1955,42.436175,-83.259048,LAHSER & PEMBROKE,0
1956,42.438071,-83.258731,LAHSER & FARGO,0
1957,42.437659,-83.259061,LAHSER & FARGO,0
1958,42.439869,-83.258806,LAHSER & TROJAN,0
1959,42.439421,-83.259148,LAHSER & TROJAN,0
1960,42.44172,-83.258734,LAHSER & HESSEL,0
1961,42.441398,-83.259064,LAHSER & HESSEL,0
1962,42.442776,-83.259139,Lahser & Eight Mile,0
1963,42.444183,-83.22572,8 MILE & GREENVIEW,0
1964,42.444696,-83.196825,8 MILE & OXLEY,0
1965,42.446196,-83.124893,WOODWARD & 8 MILE,0
1966,42.446137,-83.02453,VAN DYKE & SAVAGE,0
1967,42.445941,-83.024861,VAN DYKE & SAVAGE,0
1968,42.387881,-82.981796,WARREN & R/R,0
1969,42.349725,-82.997515,JEFFERSON & BALDWIN,0
1970,42.439709,-83.095775,STATE FAIR & OMIRA,0
1971,42.440139,-83.095762,STATE FAIR & CHRYSLER FREEWAY,0
1972,42.439861,-83.094686,STATE FAIR & CHRYSLER FREEWAY,0
1973,42.443509,-82.995031,WALTHAM & FAIRMOUNT,0
1974,42.445415,-82.995135,WALTHAM & BRINGARD,0
1975,42.447311,-82.995338,WALTHAM & COLLINGHAM,0
1976,42.442021,-82.992723,STATE FAIR & WESTPHALIA,0
1977,42.442237,-82.98816,STATE FAIR & HICKORY,0
1978,42.442251,-82.985725,STATE FAIR & SCHOENHERR,0
1979,42.441965,-82.985702,SCHOENHERR & STATE FAIR,0
1980,42.443762,-82.985501,SCHOENHERR & FAIRMOUNT,0
1981,42.44557,-82.985752,SCHOENHERR & BRINGARD,0
1982,42.447314,-82.985832,SCHOENHERR & COLLINGHAM,0
1983,42.448861,-82.985815,SCHOENHERR & 8 MILE,0
1984,42.330803,-83.044822,CONGRESS & BATES,1
1985,42.331409,-83.043636,Congress & Randolph,1
1986,42.332016,-83.042291,CONGRESS & BRUSH,1
1987,42.333247,-83.03943,CONGRESS & ST ANTOINE,1
1988,42.333617,-83.035362,LARNED & CHRYSLER FREEWAY,1
1989,42.333449,-83.037085,CONGRESS & CHRYSLER FREEWAY,1
1990,42.333956,-83.034262,LARNED & RIVARD,1
1991,42.333965,-83.034946,LARNED & RIVARD,1
1992,42.334526,-83.032966,1451 LARNED,1
1993,42.335116,-83.032244,LARNED & MID BLOCK,1
1994,42.336096,-83.029347,LARNED & ORLEANS,1
1995,42.3364,-83.029652,LARNED & ORLEANS,1
1996,42.337541,-83.02629,LARNED & ST AUBIN,1
1997,42.337166,-83.027439,LARNED & ST AUBIN,1
1998,42.337781,-83.025642,LARNED & BLAINE  HOSPITAL,1
1999,42.33821,-83.02525,LARNED & REUTHER PARK,1
2000,42.340001,-83.020299,LARNED & RALPH BUNCH APARTMENTS,1
2001,42.340162,-83.020653,LARNED & RALPH BUNCH APARTMENTS,1
2002,42.341089,-83.018452,LARNED & ST MARON,1
2003,42.344094,-83.018187,LAFAYETTE & MC DOUGALL,1
2004,42.343542,-83.01996,LAFAYETTE & ST MARON,1
2005,42.344603,-83.0176,LAFAYETTE & ROB BRADBY,1
2006,42.346003,-83.014628,KING HIGH SCHOOL,1
2007,42.342916,-83.013536,LARNED & MARTIN LUTHER KING HS,1
2008,42.341561,-83.016569,LARNED & MC DOUGALL,1
2009,42.34174,-83.016825,LARNED & MC DOUGALL,1
2010,42.343319,-83.013731,LARNED & MARTIN LUTHER KING HS,1
2011,42.344646,-83.010282,MOUNT ELLIOTT & LARNED,1
2012,42.344361,-83.010638,LARNED & MOUNT ELLIOTT,1
2013,42.352587,-83.01549,KERCHEVAL & MOUNT ELLIOTT,1
2014,42.352355,-83.015784,MOUNT ELLIOTT & KERCHEVAL,1
2015,42.350833,-83.014639,MOUNT ELLIOTT & ST PAUL,1
2016,42.350421,-83.014689,MOUNT ELLIOTT & ST PAUL,1
2017,42.347054,-83.01173,LAFAYETTE & MOUNT ELLIOTT,1
2018,42.346804,-83.012072,MOUNT ELLIOTT &  LAFAYETTE,1
2019,42.347189,-83.012035,MOUNT ELLIOTT & LAFAYETTE,1
2020,42.347892,-83.009614,LAFAYETTE & BEAUFAIT,1
2021,42.348143,-83.009736,LAFAYETTE & BEAUFAIT,1
2022,42.353593,-83.012751,KERCHEVAL & BEAUFAIT,1
2023,42.353977,-83.012261,KERCHEVAL & BELLEVUE,1
2024,42.354288,-83.010562,CONCORD & KERCHEVAL,1
2025,42.354466,-83.010293,KERCHEVAL & CONCORD,1
2026,42.354574,-83.010683,KERCHEVAL & CONCORD,1
2027,42.356471,-83.004655,KERCHEVAL & SHERIDAN,0
2028,42.356641,-83.004716,KERCHEVAL & SHERIDAN,0
2029,42.357549,-83.002367,KERCHEVAL & BUTZEL CTR,0
2030,42.357281,-83.0026,KERCHEVAL & BALDWIN,0
2031,42.389576,-83.00163,CADILLAC & SHOEMAKER,0
2032,42.389272,-83.001374,SHOEMAKER & CADILLAC,0
2033,42.392925,-83.003967,CADILLAC & HARPER,0
2034,42.393502,-83.001496,HARPER & BEWICK,0
2035,42.353587,-82.996233,VAN DYKE & LAFAYETTE,0
2036,42.358565,-82.999811,VAN DYKE & KERCHEVAL,0
2037,42.358458,-83.000153,KERCHEVAL & VAN DYKE,0
2038,42.358154,-82.999922,VAN DYKE & KERCHEVAL,0
2039,42.356238,-82.998632,VAN DYKE & ST PAUL,0
2040,42.356828,-82.998618,VAN DYKE & ST PAUL,0
2041,42.359305,-82.998477,KERCHEVAL & MAXWELL,0
2042,42.359589,-82.996888,KERCHEVAL & SEMINOLE,0
2043,42.360223,-82.996092,KERCHEVAL & IROQUOIS,0
2044,42.360703,-82.994074,KERCHEVAL & BURNS,0
2045,42.361237,-82.992875,KERCHEVAL & FISCHER,0
2046,42.36131,-82.993413,KERCHEVAL & FISCHER,0
2047,42.362137,-82.990673,KERCHEVAL & HIBBARD,0
2048,42.362655,-82.990134,KERCHEVAL & HOLCOMB,0
2049,42.36907,-82.991655,MC CLELLAN & MARIETTA,0
2050,42.36787,-82.99084,MC CLELLAN & CHARLEVOIX,0
2051,42.364356,-82.985559,PENNSYLVANIA & KERCHEVAL,0
2052,42.368108,-82.988725,PENNSYLVANIA & CHARLEVOIX,0
2053,42.384911,-82.998355,CADILLAC & MOFFAT,0
2054,42.384473,-82.998368,CADILLAC & MOFFAT,0
2055,42.377839,-82.993841,CADILLAC & CANFIELD,0
2056,42.37825,-82.993864,CADILLAC & CANFIELD,0
2057,42.37027,-82.992531,MC CLELLAN & GOETHE,0
2058,42.369532,-82.989564,PENNSYLVANIA & MARIETTA,0
2059,42.370902,-82.990647,PENNSYLVANIA & GOETHE,0
2060,42.376074,-82.992318,CADILLAC & SYLVESTER,0
2061,42.375735,-82.992491,CADILLAC & SYLVESTER,0
2062,42.373496,-82.990811,MACK & CADILLAC,0
2063,42.373791,-82.990834,CADILLAC & MACK,0
2064,42.373702,-82.991103,CADILLAC & MACK,0
2065,42.373693,-82.991152,MACK & CADILLAC,0
2066,42.387446,-83.00056,CADILLAC & CHAPIN,0
2067,42.387553,-83.000364,CADILLAC & CHAPIN,0
2068,42.385968,-82.999427,CADILLAC & BARKER,0
2069,42.393895,-83.000713,HARPER & GARLAND,0
2070,42.394132,-82.998292,HARPER & HARDING,0
2071,42.394267,-82.998744,HARPER & HARDING,0
2072,42.394569,-82.997056,HARPER & FRENCH ROAD,0
2073,42.395104,-82.996431,HARPER & MONTCLAIR,0
2074,42.395987,-82.994252,HARPER & ANSTELL,0
2075,42.395264,-82.99533,HARPER & LEMAY,0
2076,42.396395,-82.992503,HARPER & ATHENS,0
2077,42.39642,-82.991403,HARPER & BENITEAU,0
2078,42.397854,-82.987645,HARPER & GUNSTON,0
2079,42.397933,-82.986447,11820 HARPER,0
2080,42.39869,-82.984538,HARPER & BARRETT,0
2081,42.398662,-82.983829,HARPER & BARRETT,0
2082,42.39924,-82.981871,HARPER & NORCROSS,0
2083,42.39933,-82.98236,HARPER & NORCROSS,0
2084,42.400299,-82.978518,HARPER & ANNSBURY,0
2085,42.40038,-82.979056,HARPER & ANNSBURY,0
2086,42.401028,-82.975704,HARPER & PARK DRIVE,0
2087,42.4011,-82.976254,HARPER & PARK DRIVE,0
2088,42.401864,-82.973183,HARPER & DICKERSON,0
2089,42.401963,-82.973732,HARPER & DICKERSON,0
2090,42.402558,-82.97109,HARPER & DREXEL,0
2091,42.402951,-82.970697,HARPER & COPLIN,0
2092,42.403136,-82.969022,HARPER & LAKEVIEW,0
2093,42.403697,-82.967724,HARPER & NEWPORT,0
2094,42.403812,-82.967014,HARPER & NEWPORT,0
2095,42.405119,-82.962804,HARPER & PHILIP,0
2096,42.405813,-82.960687,HARPER & OUTER DRIVE,0
2097,42.405538,-82.962167,HARPER & MANISTIQUE,0
2098,42.406294,-82.959805,HARPER & WAYBURN,0
2099,42.406488,-82.958154,HARPER & MARYLAND,0
2100,42.406801,-82.958189,HARPER & LAKEPOINTE,0
2101,42.406781,-82.957138,HARPER & BARHAM,0
2102,42.407334,-82.955999,HARPER & BEACONSFIELD,0
2103,42.407528,-82.954458,HARPER & NOTTINGHAM,0
2104,42.407884,-82.953857,HARPER & SOMERSET,0
2105,42.408015,-82.952096,HARPER & BALFOUR,0
2106,42.408424,-82.95064,HARPER & CHATSWORTH,0
2107,42.408683,-82.950431,HARPER & BERKSHIRE,0
2108,42.409499,-82.946931,HARPER & DEVONSHIRE,0
2109,42.409267,-82.947054,HARPER & DEVONSHIRE,0
2110,42.409676,-82.945977,HARPER & BEDFORD,0
2111,42.410676,-82.944922,HARPER & COURVILLE,0
2112,42.4108,-82.944432,HARPER & COURVILLE,0
2113,42.413228,-82.941733,HARPER & KENSINGTON,0
2114,42.414056,-82.940165,HARPER & YORKSHIRE,0
2115,42.414467,-82.940017,HARPER & BISHOP,0
2116,42.415207,-82.938326,HARPER & GRAYTON,0
2117,42.415189,-82.938351,HARPER & GRAYTON,0
